{
  "data": "2026-04-14T17:23:09.149Z",
  "modo": "corrigir",
  "total_validados": 525,
  "ok": 157,
  "suspeitos": 74,
  "incorretos": 295,
  "erros": 0,
  "corrigidos": 295,
  "resultados": [
    {
      "cnpj": "34184162000149",
      "nome": "AUTO POSTO FORTE",
      "endereco": "ROD BR 423, SN, ZONA RURAL, AGUA BRANCA, AL, Brasil",
      "municipio": "AGUA BRANCA",
      "coordenadas_atuais": {
        "lat": -9.26083,
        "lng": -37.93611
      },
      "coordenadas_google": {
        "lat": -9.3043649,
        "lng": -37.8877254
      },
      "distancia_metros": 7185,
      "status": "INCORRETO",
      "corrigido": true,
      "fonte_atual": "opencage"
    },
    {
      "cnpj": "27591789000159",
      "nome": "POSTO CANGACO",
      "endereco": "ROD AL 145, 01, POV. TABELA, AGUA BRANCA, AL, Brasil",
      "municipio": "AGUA BRANCA",
      "coordenadas_atuais": {
        "lat": -9.262425,
        "lng": -37.935444
      },
      "coordenadas_google": {
        "lat": -9.331309,
        "lng": -37.9839393
      },
      "distancia_metros": 9327,
      "status": "INCORRETO",
      "corrigido": true,
      "fonte_atual": "sefaz"
    },
    {
      "cnpj": "47328180000107",
      "nome": "AGUA BRANCA PRIME LTDA",
      "endereco": "Rua Conego Nicodemos, 115, centro, AGUA BRANCA, AL, Brasil",
      "municipio": "AGUA BRANCA",
      "coordenadas_atuais": {
        "lat": -9.26083,
        "lng": -37.93611
      },
      "coordenadas_google": {
        "lat": -9.2638631,
        "lng": -37.9403216
      },
      "distancia_metros": 572,
      "status": "INCORRETO",
      "corrigido": true,
      "fonte_atual": "opencage"
    },
    {
      "cnpj": "22213274000100",
      "nome": "POSTO MARIA BODE",
      "endereco": "ROD BR 423, 28111, ZONA RURAL, AGUA BRANCA, AL, Brasil",
      "municipio": "AGUA BRANCA",
      "coordenadas_atuais": {
        "lat": -9.26083,
        "lng": -37.93611
      },
      "coordenadas_google": {
        "lat": -9.3293894,
        "lng": -37.982616
      },
      "distancia_metros": 9174,
      "status": "INCORRETO",
      "corrigido": true,
      "fonte_atual": "opencage"
    },
    {
      "cnpj": "21169733000124",
      "nome": "AUTO POSTO SAO JOAO LTDA",
      "endereco": "Rua VEREADOR HERMES DA MATA FONSECA, 32, CENTRO, ANADIA, AL, Brasil",
      "municipio": "ANADIA",
      "coordenadas_atuais": {
        "lat": -9.7565768,
        "lng": -36.6488244
      },
      "coordenadas_google": {
        "lat": -9.6826698,
        "lng": -36.3042474
      },
      "distancia_metros": 38649,
      "status": "INCORRETO",
      "corrigido": true,
      "fonte_atual": "sefaz"
    },
    {
      "cnpj": "13564704000139",
      "nome": "AUTO POSTO BALSAMO",
      "endereco": "ROD AL 110, 8766, ZONA RURAL, ARAPIRACA, AL, Brasil",
      "municipio": "ARAPIRACA",
      "coordenadas_atuais": {
        "lat": -9.789481799999999,
        "lng": -36.62715439999999
      },
      "coordenadas_google": {
        "lat": -9.8144395,
        "lng": -36.6046612
      },
      "distancia_metros": 3712,
      "status": "INCORRETO",
      "corrigido": true,
      "fonte_atual": "sefaz"
    },
    {
      "cnpj": "56616166000191",
      "nome": "AUTO POSTO CARDOSO",
      "endereco": "AV JOAO SATURNINO DE ALMEIDA, 643, NOVA ESPERANCA, ARAPIRACA, AL, Brasil",
      "municipio": "ARAPIRACA",
      "coordenadas_atuais": {
        "lat": -9.7525,
        "lng": -36.66111
      },
      "coordenadas_google": {
        "lat": -9.7758266,
        "lng": -36.6449393
      },
      "distancia_metros": 3141,
      "status": "INCORRETO",
      "corrigido": true,
      "fonte_atual": "opencage"
    },
    {
      "cnpj": "55894566000104",
      "nome": "TCN COMBUSTÍVEIS LTDA",
      "endereco": "AV JOÃO CRISÓSTOMO RAMALHO (AL - 110), 1054, Canafístula, ARAPIRACA, AL, Brasil",
      "municipio": "ARAPIRACA",
      "coordenadas_atuais": {
        "lat": -9.7525,
        "lng": -36.66111
      },
      "coordenadas_google": {
        "lat": -9.758335899999999,
        "lng": -36.6393967
      },
      "distancia_metros": 2466,
      "status": "INCORRETO",
      "corrigido": true,
      "fonte_atual": "opencage"
    },
    {
      "cnpj": "28683318000133",
      "nome": "AUTO POSTO BLUE CANAA",
      "endereco": "ROD AL-220, 9257, SENADOR NILO COELHO, ARAPIRACA, AL, Brasil",
      "municipio": "ARAPIRACA",
      "coordenadas_atuais": {
        "lat": -9.7525,
        "lng": -36.66111
      },
      "coordenadas_google": {
        "lat": -9.7215201,
        "lng": -36.6873385
      },
      "distancia_metros": 4487,
      "status": "INCORRETO",
      "corrigido": true,
      "fonte_atual": "opencage"
    },
    {
      "cnpj": "61812873000193",
      "nome": "Posto Massa",
      "endereco": "AV Deputada Ceci Cunha, 564, Brasília, ARAPIRACA, AL, Brasil",
      "municipio": "ARAPIRACA",
      "coordenadas_atuais": {
        "lat": -9.747084,
        "lng": -36.645892
      },
      "coordenadas_google": {
        "lat": -9.7480124,
        "lng": -36.6471376
      },
      "distancia_metros": 171,
      "status": "SUSPEITO",
      "corrigido": false,
      "fonte_atual": "nominatim"
    },
    {
      "cnpj": "43269122000190",
      "nome": "POSTO QUATRO RODAS III",
      "endereco": "ROD AL-115, 2293, BOA VISTA, ARAPIRACA, AL, Brasil",
      "municipio": "ARAPIRACA",
      "coordenadas_atuais": {
        "lat": -9.7352996,
        "lng": -36.6497995
      },
      "coordenadas_google": {
        "lat": -9.776157699999999,
        "lng": -36.680843
      },
      "distancia_metros": 5676,
      "status": "INCORRETO",
      "corrigido": true,
      "fonte_atual": "sefaz"
    },
    {
      "cnpj": "45605930000107",
      "nome": "AUTO POSTO BOA VISTA",
      "endereco": "AV João Crisóstomo Ramalho, 100, BOA VISTA, ARAPIRACA, AL, Brasil",
      "municipio": "ARAPIRACA",
      "coordenadas_atuais": {
        "lat": -9.7525,
        "lng": -36.66111
      },
      "coordenadas_google": {
        "lat": -9.752108999999999,
        "lng": -36.6371864
      },
      "distancia_metros": 2622,
      "status": "INCORRETO",
      "corrigido": true,
      "fonte_atual": "opencage"
    },
    {
      "cnpj": "15007757000184",
      "nome": "POSTO PARAISO",
      "endereco": "ROD AL 110, SN, ZONA RURAL, ARAPIRACA, AL, Brasil",
      "municipio": "ARAPIRACA",
      "coordenadas_atuais": {
        "lat": -9.759054599999999,
        "lng": -36.6399936
      },
      "coordenadas_google": {
        "lat": -9.8144395,
        "lng": -36.6046612
      },
      "distancia_metros": 7274,
      "status": "INCORRETO",
      "corrigido": true,
      "fonte_atual": "sefaz"
    },
    {
      "cnpj": "39322936000174",
      "nome": "AUTO POSTO TOTAL 4 LTDA",
      "endereco": "AV JOAO CRISOSTOMO RAMALHO, 789, BRASILIA, ARAPIRACA, AL, Brasil",
      "municipio": "ARAPIRACA",
      "coordenadas_atuais": {
        "lat": -9.7525,
        "lng": -36.66111
      },
      "coordenadas_google": {
        "lat": -9.753412800000001,
        "lng": -36.6380499
      },
      "distancia_metros": 2529,
      "status": "INCORRETO",
      "corrigido": true,
      "fonte_atual": "opencage"
    },
    {
      "cnpj": "55862110000154",
      "nome": "AUTO POSTO SANTA MONICA",
      "endereco": "ROD AL 115, 4040, SITIO BARREIRAS, ARAPIRACA, AL, Brasil",
      "municipio": "ARAPIRACA",
      "coordenadas_atuais": {
        "lat": -9.8816624,
        "lng": -36.3201436
      },
      "coordenadas_google": {
        "lat": -9.784228299999999,
        "lng": -36.6515888
      },
      "distancia_metros": 37895,
      "status": "INCORRETO",
      "corrigido": true,
      "fonte_atual": "opencage"
    },
    {
      "cnpj": "37765274000181",
      "nome": "AUTO POSTO TOPMIX II",
      "endereco": "ROD AL 115, S/N, VILA SAO JOSE, ARAPIRACA, AL, Brasil",
      "municipio": "ARAPIRACA",
      "coordenadas_atuais": {
        "lat": -9.7525,
        "lng": -36.66111
      },
      "coordenadas_google": {
        "lat": -9.6438986,
        "lng": -36.679091
      },
      "distancia_metros": 12236,
      "status": "INCORRETO",
      "corrigido": true,
      "fonte_atual": "opencage"
    },
    {
      "cnpj": "57516491000145",
      "nome": "CARANGO 2",
      "endereco": "AV VENTURA DE FARIAS, S/N, CAVACO, ARAPIRACA, AL, Brasil",
      "municipio": "ARAPIRACA",
      "coordenadas_atuais": {
        "lat": -9.7431816,
        "lng": -36.6747291
      },
      "coordenadas_google": {
        "lat": -9.7430716,
        "lng": -36.676839
      },
      "distancia_metros": 232,
      "status": "SUSPEITO",
      "corrigido": false,
      "fonte_atual": "nominatim"
    },
    {
      "cnpj": "31391653000172",
      "nome": "COMERCIAL VERDES CAMPOS",
      "endereco": "ROD AL-115, SN, VERDES CAMPOS, ARAPIRACA, AL, Brasil",
      "municipio": "ARAPIRACA",
      "coordenadas_atuais": {
        "lat": -9.7768291,
        "lng": -36.6350108
      },
      "coordenadas_google": {
        "lat": -9.7819835,
        "lng": -36.6470966
      },
      "distancia_metros": 1443,
      "status": "INCORRETO",
      "corrigido": true,
      "fonte_atual": "sefaz"
    },
    {
      "cnpj": "54725842000130",
      "nome": "POR DO SOL COMERCIO DE COMBUSTIVEIS",
      "endereco": "ROD AL-115, S/N, Bom Sucesso, ARAPIRACA, AL, Brasil",
      "municipio": "ARAPIRACA",
      "coordenadas_atuais": {
        "lat": -9.7525,
        "lng": -36.66111
      },
      "coordenadas_google": {
        "lat": -9.7251789,
        "lng": -36.6760546
      },
      "distancia_metros": 3451,
      "status": "INCORRETO",
      "corrigido": true,
      "fonte_atual": "opencage"
    },
    {
      "cnpj": "18715178000184",
      "nome": "POSTO SAO GABRIEL",
      "endereco": "Rua SAMARITANA, 163, SANTA EDWIGES, ARAPIRACA, AL, Brasil",
      "municipio": "ARAPIRACA",
      "coordenadas_atuais": {
        "lat": -9.749581,
        "lng": -36.658525
      },
      "coordenadas_google": {
        "lat": -9.7399454,
        "lng": -36.6574193
      },
      "distancia_metros": 1078,
      "status": "INCORRETO",
      "corrigido": true,
      "fonte_atual": "sefaz"
    },
    {
      "cnpj": "33833792000134",
      "nome": "AUTO POSTO VILLA LTDA",
      "endereco": "ROD AL-115, 752, BOM SUCESSO, ARAPIRACA, AL, Brasil",
      "municipio": "ARAPIRACA",
      "coordenadas_atuais": {
        "lat": -9.7525,
        "lng": -36.66111
      },
      "coordenadas_google": {
        "lat": -9.729114899999999,
        "lng": -36.6718664
      },
      "distancia_metros": 2855,
      "status": "INCORRETO",
      "corrigido": true,
      "fonte_atual": "opencage"
    },
    {
      "cnpj": "17879703000134",
      "nome": "AUTO POSTO TABELA LTDA",
      "endereco": "SIT BARREIRAS, S/N, ZONA RURAL, ARAPIRACA, AL, Brasil",
      "municipio": "ARAPIRACA",
      "coordenadas_atuais": {
        "lat": -9.666667,
        "lng": -36.716667
      },
      "coordenadas_google": {
        "lat": -9.112408499999999,
        "lng": -35.2702703
      },
      "distancia_metros": 170225,
      "status": "INCORRETO",
      "corrigido": true,
      "fonte_atual": "sefaz"
    },
    {
      "cnpj": "08738994000150",
      "nome": "POSTO FLEX",
      "endereco": "ROD AL-220, 5848, BOM SUCESSO, ARAPIRACA, AL, Brasil",
      "municipio": "ARAPIRACA",
      "coordenadas_atuais": {
        "lat": -9.8005418,
        "lng": -36.1114887
      },
      "coordenadas_google": {
        "lat": -9.724236699999999,
        "lng": -36.679165
      },
      "distancia_metros": 62785,
      "status": "INCORRETO",
      "corrigido": true,
      "fonte_atual": "sefaz"
    },
    {
      "cnpj": "61017230000158",
      "nome": "AUTO POSTO JG",
      "endereco": "Rua SEVERINO JOSE DA SILVA, s/n, ZONA RURAL, ARAPIRACA, AL, Brasil",
      "municipio": "ARAPIRACA",
      "coordenadas_atuais": {
        "lat": -9.7525,
        "lng": -36.66111
      },
      "coordenadas_google": {
        "lat": -9.843374,
        "lng": -36.5702927
      },
      "distancia_metros": 14182,
      "status": "INCORRETO",
      "corrigido": true,
      "fonte_atual": "opencage"
    },
    {
      "cnpj": "29763548000175",
      "nome": "AUTO POSTO BL",
      "endereco": "AV 15/49, 1325, BATINGAS, ARAPIRACA, AL, Brasil",
      "municipio": "ARAPIRACA",
      "coordenadas_atuais": {
        "lat": -9.7555596,
        "lng": -36.6639697
      },
      "coordenadas_google": {
        "lat": -9.3194109,
        "lng": -36.4750806
      },
      "distancia_metros": 52736,
      "status": "INCORRETO",
      "corrigido": true,
      "fonte_atual": "sefaz"
    },
    {
      "cnpj": "28164941000180",
      "nome": "CAVALCANTE COMBUSTIVEIS LTDA - EPP",
      "endereco": "ROD AL-110, 670, CANAFISTULA, ARAPIRACA, AL, Brasil",
      "municipio": "ARAPIRACA",
      "coordenadas_atuais": {
        "lat": -9.7525,
        "lng": -36.66111
      },
      "coordenadas_google": {
        "lat": -9.7417611,
        "lng": -36.6265841
      },
      "distancia_metros": 3968,
      "status": "INCORRETO",
      "corrigido": true,
      "fonte_atual": "opencage"
    },
    {
      "cnpj": "24313645000142",
      "nome": "POSTO DI VAN",
      "endereco": "AV ANTONIO SERMEAO L FILHO, 406, JARDIM TROPICAL, ARAPIRACA, AL, Brasil",
      "municipio": "ARAPIRACA",
      "coordenadas_atuais": {
        "lat": -9.7594,
        "lng": -36.64069
      },
      "coordenadas_google": {
        "lat": -9.7589706,
        "lng": -36.6437162
      },
      "distancia_metros": 335,
      "status": "SUSPEITO",
      "corrigido": false,
      "fonte_atual": "sefaz"
    },
    {
      "cnpj": "15138057000129",
      "nome": "AUTO POSTO BATINGAS",
      "endereco": "ROD AL 110, 9726, POVOADO PAU D'ARCO, ARAPIRACA, AL, Brasil",
      "municipio": "ARAPIRACA",
      "coordenadas_atuais": {
        "lat": -9.802042,
        "lng": -36.5820552
      },
      "coordenadas_google": {
        "lat": -9.8174469,
        "lng": -36.6134258
      },
      "distancia_metros": 3840,
      "status": "INCORRETO",
      "corrigido": true,
      "fonte_atual": "sefaz"
    },
    {
      "cnpj": "29540082000149",
      "nome": "AB COMBUSTIVEIS LTDA",
      "endereco": "Rua ESTUDANTE JOSE DE OLIVEIRA LEITE, 1289, OURO PRETO, ARAPIRACA, AL, Brasil",
      "municipio": "ARAPIRACA",
      "coordenadas_atuais": {
        "lat": -9.7531528,
        "lng": -36.6589572
      },
      "coordenadas_google": {
        "lat": -9.7609921,
        "lng": -36.6526874
      },
      "distancia_metros": 1110,
      "status": "INCORRETO",
      "corrigido": true,
      "fonte_atual": "sefaz"
    },
    {
      "cnpj": "40349483000159",
      "nome": "POSTO TERRA NOSSA - UNIDADE NILO COELHO",
      "endereco": "Rua PEDRO ALEXANDRE, 710, SENADOR NILO COELHO, ARAPIRACA, AL, Brasil",
      "municipio": "ARAPIRACA",
      "coordenadas_atuais": {
        "lat": -9.7359456,
        "lng": -36.6866733
      },
      "coordenadas_google": {
        "lat": -9.737685700000002,
        "lng": -36.6823847
      },
      "distancia_metros": 508,
      "status": "INCORRETO",
      "corrigido": true,
      "fonte_atual": "nominatim"
    },
    {
      "cnpj": "30960497000150",
      "nome": "AUTO POSTO CARANGO",
      "endereco": "Rua DOM PEDRO II, SN, SAO LUIZ, ARAPIRACA, AL, Brasil",
      "municipio": "ARAPIRACA",
      "coordenadas_atuais": {
        "lat": -9.7590058,
        "lng": -36.6507001
      },
      "coordenadas_google": {
        "lat": -9.7619934,
        "lng": -36.6529873
      },
      "distancia_metros": 416,
      "status": "SUSPEITO",
      "corrigido": false,
      "fonte_atual": "sefaz"
    },
    {
      "cnpj": "29790416000213",
      "nome": "SKY AUTO POSTO II",
      "endereco": "ROD AL-220, S/N, SENADOR ARNON DE MELO, ARAPIRACA, AL, Brasil",
      "municipio": "ARAPIRACA",
      "coordenadas_atuais": {
        "lat": -9.7525,
        "lng": -36.66111
      },
      "coordenadas_google": {
        "lat": -9.7380807,
        "lng": -36.6442309
      },
      "distancia_metros": 2448,
      "status": "INCORRETO",
      "corrigido": true,
      "fonte_atual": "opencage"
    },
    {
      "cnpj": "16527263000193",
      "nome": "AUTO POSTO ACQUA BOOL",
      "endereco": "ROD AL 220, 4736, BOM SUCESSO, ARAPIRACA, AL, Brasil",
      "municipio": "ARAPIRACA",
      "coordenadas_atuais": {
        "lat": -9.7282745,
        "lng": -36.667413
      },
      "coordenadas_google": {
        "lat": -9.7270535,
        "lng": -36.6698595
      },
      "distancia_metros": 301,
      "status": "SUSPEITO",
      "corrigido": false,
      "fonte_atual": "sefaz"
    },
    {
      "cnpj": "15080185000169",
      "nome": "POSTO AVENIDA",
      "endereco": "Rua PADRE DANIEL, 639, ELDORADO, ARAPIRACA, AL, Brasil",
      "municipio": "ARAPIRACA",
      "coordenadas_atuais": {
        "lat": -9.7451275,
        "lng": -36.6681255
      },
      "coordenadas_google": {
        "lat": -9.744150699999999,
        "lng": -36.66757930000001
      },
      "distancia_metros": 124,
      "status": "SUSPEITO",
      "corrigido": false,
      "fonte_atual": "sefaz"
    },
    {
      "cnpj": "29790416000132",
      "nome": "SKY AUTO POSTO",
      "endereco": "AV DEPUTADA CECI CUNHA, 66, BRASILIA, ARAPIRACA, AL, Brasil",
      "municipio": "ARAPIRACA",
      "coordenadas_atuais": {
        "lat": -9.749581,
        "lng": -36.658525
      },
      "coordenadas_google": {
        "lat": -9.7505809,
        "lng": -36.6518682
      },
      "distancia_metros": 738,
      "status": "INCORRETO",
      "corrigido": true,
      "fonte_atual": "sefaz"
    },
    {
      "cnpj": "29736718000122",
      "nome": "POSTO CHARMM FLEX",
      "endereco": "AV JOSE EMIDIO DE LIMA, 150, JARDIM ESPERANCA, ARAPIRACA, AL, Brasil",
      "municipio": "ARAPIRACA",
      "coordenadas_atuais": {
        "lat": -9.749581,
        "lng": -36.658525
      },
      "coordenadas_google": {
        "lat": -9.730196399999999,
        "lng": -36.6789851
      },
      "distancia_metros": 3110,
      "status": "INCORRETO",
      "corrigido": true,
      "fonte_atual": "sefaz"
    },
    {
      "cnpj": "02817655000182",
      "nome": "POSTO INSINUANTE",
      "endereco": "ROD AL-220, 1901, SANTA ESMERALDA, ARAPIRACA, AL, Brasil",
      "municipio": "ARAPIRACA",
      "coordenadas_atuais": {
        "lat": -9.7525,
        "lng": -36.66111
      },
      "coordenadas_google": {
        "lat": -9.7387119,
        "lng": -36.6434874
      },
      "distancia_metros": 2466,
      "status": "INCORRETO",
      "corrigido": true,
      "fonte_atual": "opencage"
    },
    {
      "cnpj": "29790416000485",
      "nome": "MG PETRO COMBUSTIVEIS LTDA",
      "endereco": "Rua PAULA MAGALHAES, 293, OURO PRETO, ARAPIRACA, AL, Brasil",
      "municipio": "ARAPIRACA",
      "coordenadas_atuais": {
        "lat": -9.7525,
        "lng": -36.66111
      },
      "coordenadas_google": {
        "lat": -9.756758699999999,
        "lng": -36.6574486
      },
      "distancia_metros": 621,
      "status": "INCORRETO",
      "corrigido": true,
      "fonte_atual": "opencage"
    },
    {
      "cnpj": "29856594000119",
      "nome": "POSTO FELICIDADE II",
      "endereco": "Rua DOM PEDRO II, 234, SAO LUIZ, ARAPIRACA, AL, Brasil",
      "municipio": "ARAPIRACA",
      "coordenadas_atuais": {
        "lat": -9.7590058,
        "lng": -36.6507001
      },
      "coordenadas_google": {
        "lat": -9.762968599999999,
        "lng": -36.65400959999999
      },
      "distancia_metros": 571,
      "status": "INCORRETO",
      "corrigido": true,
      "fonte_atual": "sefaz"
    },
    {
      "cnpj": "35782528000144",
      "nome": "AUTO POSTO SANTA IZABEL LTDA",
      "endereco": "Rua ANTONIO FELICIANO, 696, CANAFISTULA, ARAPIRACA, AL, Brasil",
      "municipio": "ARAPIRACA",
      "coordenadas_atuais": {
        "lat": -9.7636101,
        "lng": -36.6282113
      },
      "coordenadas_google": {
        "lat": -9.7614614,
        "lng": -36.6333286
      },
      "distancia_metros": 610,
      "status": "INCORRETO",
      "corrigido": true,
      "fonte_atual": "nominatim"
    },
    {
      "cnpj": "29633902000147",
      "nome": "AUTO POSTO NINO",
      "endereco": "Rua EXPEDICIONARIOS BRASILEIROS, 434, BAIXA GRANDE, ARAPIRACA, AL, Brasil",
      "municipio": "ARAPIRACA",
      "coordenadas_atuais": {
        "lat": -9.7457243,
        "lng": -36.6662145
      },
      "coordenadas_google": {
        "lat": -9.7332061,
        "lng": -36.6714163
      },
      "distancia_metros": 1504,
      "status": "INCORRETO",
      "corrigido": true,
      "fonte_atual": "sefaz"
    },
    {
      "cnpj": "35370972000152",
      "nome": "POSTO TREIS IRMAOS",
      "endereco": "Rua BENJAMIM FREIRE DE AMORIM, 2135, BRASILIANA, ARAPIRACA, AL, Brasil",
      "municipio": "ARAPIRACA",
      "coordenadas_atuais": {
        "lat": -9.766834099999999,
        "lng": -36.6713804
      },
      "coordenadas_google": {
        "lat": -9.7277019,
        "lng": -36.669787
      },
      "distancia_metros": 4355,
      "status": "INCORRETO",
      "corrigido": true,
      "fonte_atual": "sefaz"
    },
    {
      "cnpj": "07248398000129",
      "nome": "POSTO MASSARANDUBA",
      "endereco": "RDV AL 220, 4698, PLANALTO, ARAPIRACA, AL, Brasil",
      "municipio": "ARAPIRACA",
      "coordenadas_atuais": {
        "lat": -9.7282495,
        "lng": -36.6674871
      },
      "coordenadas_google": {
        "lat": -9.7271608,
        "lng": -36.6694252
      },
      "distancia_metros": 244,
      "status": "SUSPEITO",
      "corrigido": false,
      "fonte_atual": "sefaz"
    },
    {
      "cnpj": "29982332000109",
      "nome": "AUTO POSTO UNIVERSAL LTDA",
      "endereco": "ROD AL-115, 5437, OLHO D'AGUA DOS CAZUZINHOS, ARAPIRACA, AL, Brasil",
      "municipio": "ARAPIRACA",
      "coordenadas_atuais": {
        "lat": -9.909116,
        "lng": -36.8148315
      },
      "coordenadas_google": {
        "lat": -9.7732429,
        "lng": -36.6761398
      },
      "distancia_metros": 21428,
      "status": "INCORRETO",
      "corrigido": true,
      "fonte_atual": "sefaz"
    },
    {
      "cnpj": "25155712000100",
      "nome": "AUTO POSTO LIDER",
      "endereco": "ROD ROD AL 220, 500, CANAA, ARAPIRACA, AL, Brasil",
      "municipio": "ARAPIRACA",
      "coordenadas_atuais": {
        "lat": -9.7525,
        "lng": -36.66111
      },
      "coordenadas_google": {
        "lat": -9.7128207,
        "lng": -36.7124082
      },
      "distancia_metros": 7147,
      "status": "INCORRETO",
      "corrigido": true,
      "fonte_atual": "opencage"
    },
    {
      "cnpj": "41702805000164",
      "nome": "AUTO POSTO CAZUZINHO LTDA",
      "endereco": "Rua CORONEL VICENTE RAMOS, 838, OLHO D'AGUA DOS CAZUZINHAS, ARAPIRACA, AL, Brasil",
      "municipio": "ARAPIRACA",
      "coordenadas_atuais": {
        "lat": -9.7628998,
        "lng": -36.666684
      },
      "coordenadas_google": {
        "lat": -9.767546,
        "lng": -36.6718409
      },
      "distancia_metros": 766,
      "status": "INCORRETO",
      "corrigido": true,
      "fonte_atual": "sefaz"
    },
    {
      "cnpj": "34405715000146",
      "nome": "POSTO REAL",
      "endereco": "Rua DOM JONAS BATINGA, 5, OURO PRETO, ARAPIRACA, AL, Brasil",
      "municipio": "ARAPIRACA",
      "coordenadas_atuais": {
        "lat": -9.7634938,
        "lng": -36.6558707
      },
      "coordenadas_google": {
        "lat": -9.759432,
        "lng": -36.6570864
      },
      "distancia_metros": 471,
      "status": "SUSPEITO",
      "corrigido": false,
      "fonte_atual": "sefaz"
    },
    {
      "cnpj": "55378874000179",
      "nome": "POSTO TERRA NOSSA - UNIDADE BRASILIANA",
      "endereco": "Rua Benjamim Freire de Amorim, 1032, Brasiliana, ARAPIRACA, AL, Brasil",
      "municipio": "ARAPIRACA",
      "coordenadas_atuais": {
        "lat": -9.7525,
        "lng": -36.66111
      },
      "coordenadas_google": {
        "lat": -9.739425299999999,
        "lng": -36.6660151
      },
      "distancia_metros": 1550,
      "status": "INCORRETO",
      "corrigido": true,
      "fonte_atual": "opencage"
    },
    {
      "cnpj": "12451076000465",
      "nome": "POSTO TREVO",
      "endereco": "RDV AL 220, 105, CANAFISTULA, ARAPIRACA, AL, Brasil",
      "municipio": "ARAPIRACA",
      "coordenadas_atuais": {
        "lat": -9.7277837,
        "lng": -36.6681649
      },
      "coordenadas_google": {
        "lat": -9.747849,
        "lng": -36.6318151
      },
      "distancia_metros": 4566,
      "status": "INCORRETO",
      "corrigido": true,
      "fonte_atual": "sefaz"
    },
    {
      "cnpj": "34651149000152",
      "nome": "POSTO HORIZONTE",
      "endereco": "AV MIGUEL CORREIA AMORIM, 156, MANUEL TELES, ARAPIRACA, AL, Brasil",
      "municipio": "ARAPIRACA",
      "coordenadas_atuais": {
        "lat": -9.7566793,
        "lng": -36.6723584
      },
      "coordenadas_google": {
        "lat": -9.758909599999999,
        "lng": -36.6721953
      },
      "distancia_metros": 249,
      "status": "SUSPEITO",
      "corrigido": false,
      "fonte_atual": "sefaz"
    },
    {
      "cnpj": "24083322000100",
      "nome": "AUTO POSTO AL EXPRESS",
      "endereco": "AV ENIRALDO DE OLIVEIRA ALMEIDA (AL 110), SN, CANAFISTULA, ARAPIRACA, AL, Brasil",
      "municipio": "ARAPIRACA",
      "coordenadas_atuais": {
        "lat": -9.7525,
        "lng": -36.66111
      },
      "coordenadas_google": {
        "lat": -9.7773804,
        "lng": -36.6345061
      },
      "distancia_metros": 4019,
      "status": "INCORRETO",
      "corrigido": true,
      "fonte_atual": "opencage"
    },
    {
      "cnpj": "40921967000120",
      "nome": "RODO CENTER AUTO POSTO",
      "endereco": "ROD AL-220, 6145, JARDIM ESPERANCA, ARAPIRACA, AL, Brasil",
      "municipio": "ARAPIRACA",
      "coordenadas_atuais": {
        "lat": -9.7525,
        "lng": -36.66111
      },
      "coordenadas_google": {
        "lat": -9.7239151,
        "lng": -36.6809005
      },
      "distancia_metros": 3848,
      "status": "INCORRETO",
      "corrigido": true,
      "fonte_atual": "opencage"
    },
    {
      "cnpj": "01242690000158",
      "nome": "POSTO JOTA PINTO ARAPIRACA",
      "endereco": "ROD AL-110, 678, CANAFISTULA, ARAPIRACA, AL, Brasil",
      "municipio": "ARAPIRACA",
      "coordenadas_atuais": {
        "lat": -9.759054599999999,
        "lng": -36.6399936
      },
      "coordenadas_google": {
        "lat": -9.751756,
        "lng": -36.636632
      },
      "distancia_metros": 891,
      "status": "INCORRETO",
      "corrigido": true,
      "fonte_atual": "sefaz"
    },
    {
      "cnpj": "21909741000160",
      "nome": "POSTO BOSQUE DAS ARAPIRACAS",
      "endereco": "Rua DELMIRO GOUVEIA, 1382, SENADOR TEOTONIO VILELA, ARAPIRACA, AL, Brasil",
      "municipio": "ARAPIRACA",
      "coordenadas_atuais": {
        "lat": -9.7446048,
        "lng": -36.6589709
      },
      "coordenadas_google": {
        "lat": -9.742426499999999,
        "lng": -36.6589602
      },
      "distancia_metros": 242,
      "status": "SUSPEITO",
      "corrigido": false,
      "fonte_atual": "sefaz"
    },
    {
      "cnpj": "21309025000141",
      "nome": "AUTO POSTO BRISA DO LAGO COMBUSTIVEIS E TRANSPORTES LTDA",
      "endereco": "Rua CORONEL VICENTE RAMOS, SN, OLHO D AGUA DOS CAZUZINHOS, ARAPIRACA, AL, Brasil",
      "municipio": "ARAPIRACA",
      "coordenadas_atuais": {
        "lat": -9.7667916,
        "lng": -36.6710844
      },
      "coordenadas_google": {
        "lat": -9.7691863,
        "lng": -36.672072
      },
      "distancia_metros": 287,
      "status": "SUSPEITO",
      "corrigido": false,
      "fonte_atual": "sefaz"
    },
    {
      "cnpj": "31278560000136",
      "nome": "AUTO POSTO IMPERADOR",
      "endereco": "ROD BR 316, SN, DISTRITO BRANCA, ATALAIA, AL, Brasil",
      "municipio": "ATALAIA",
      "coordenadas_atuais": {
        "lat": -9.4881612,
        "lng": -36.1468669
      },
      "coordenadas_google": {
        "lat": -9.5073388,
        "lng": -36.0235649
      },
      "distancia_metros": 13690,
      "status": "INCORRETO",
      "corrigido": true,
      "fonte_atual": "sefaz"
    },
    {
      "cnpj": "39741813000178",
      "nome": "POSTO 15",
      "endereco": "ROD BR 316, SN, BOCA DA MATA, ATALAIA, AL, Brasil",
      "municipio": "ATALAIA",
      "coordenadas_atuais": {
        "lat": -9.5149011,
        "lng": -36.0017582
      },
      "coordenadas_google": {
        "lat": -9.3864034,
        "lng": -36.7726788
      },
      "distancia_metros": 85758,
      "status": "INCORRETO",
      "corrigido": true,
      "fonte_atual": "sefaz"
    },
    {
      "cnpj": "07150975000145",
      "nome": "AUTO POSTO ATALAIA",
      "endereco": "RDV BR 316  KM 45, S/N, JOSE PAULINO, ATALAIA, AL, Brasil",
      "municipio": "ATALAIA",
      "coordenadas_atuais": {
        "lat": -9.5093176,
        "lng": -36.0117388
      },
      "coordenadas_google": {
        "lat": -9.5042961,
        "lng": -36.030596
      },
      "distancia_metros": 2142,
      "status": "INCORRETO",
      "corrigido": true,
      "fonte_atual": "sefaz"
    },
    {
      "cnpj": "12486809000235",
      "nome": "POSTO CHA DE ATALAIA",
      "endereco": "AV PEDRO PEREIRA ACIOLI, 103, VILA JOSE PAULINO, ATALAIA, AL, Brasil",
      "municipio": "ATALAIA",
      "coordenadas_atuais": {
        "lat": -9.5108483,
        "lng": -36.0043199
      },
      "coordenadas_google": {
        "lat": -9.5121377,
        "lng": -36.0032464
      },
      "distancia_metros": 186,
      "status": "SUSPEITO",
      "corrigido": false,
      "fonte_atual": "sefaz"
    },
    {
      "cnpj": "10889582000162",
      "nome": "AUTO POSTO RODRIGUES LTDA",
      "endereco": "RDV BR 316, SN, GUARANI, ATALAIA, AL, Brasil",
      "municipio": "ATALAIA",
      "coordenadas_atuais": {
        "lat": -9.5093176,
        "lng": -36.0117388
      },
      "coordenadas_google": {
        "lat": -9.5073388,
        "lng": -36.0235649
      },
      "distancia_metros": 1315,
      "status": "INCORRETO",
      "corrigido": true,
      "fonte_atual": "sefaz"
    },
    {
      "cnpj": "11679330000171",
      "nome": "AUTO POSTO PREMIUM",
      "endereco": "ROD BR 316, 74, NOVA OLINDA, ATALAIA, AL, Brasil",
      "municipio": "ATALAIA",
      "coordenadas_atuais": {
        "lat": -9.5877691,
        "lng": -35.95618899999999
      },
      "coordenadas_google": {
        "lat": -9.5069044,
        "lng": -36.024316
      },
      "distancia_metros": 11690,
      "status": "INCORRETO",
      "corrigido": true,
      "fonte_atual": "sefaz"
    },
    {
      "cnpj": "05310563000108",
      "nome": "AUTO POSTO BARRA DE SANTO ANTONIO",
      "endereco": "RDV AL 101 NORTE, S/N, CENTRO, BARRA DE SANTO ANTONIO, AL, Brasil",
      "municipio": "BARRA DE SANTO ANTONIO",
      "coordenadas_atuais": {
        "lat": -9.3865423,
        "lng": -35.496817
      },
      "coordenadas_google": {
        "lat": -9.3957661,
        "lng": -35.4974628
      },
      "distancia_metros": 1028,
      "status": "INCORRETO",
      "corrigido": true,
      "fonte_atual": "sefaz"
    },
    {
      "cnpj": "24327942000147",
      "nome": "POSTO ROSA MARIA",
      "endereco": "RDV AL 101, SN, ZONA RURAL, BARRA DE SANTO ANTONIO, AL, Brasil",
      "municipio": "BARRA DE SANTO ANTONIO",
      "coordenadas_atuais": {
        "lat": -9.3865423,
        "lng": -35.496817
      },
      "coordenadas_google": {
        "lat": -9.3957661,
        "lng": -35.4974628
      },
      "distancia_metros": 1028,
      "status": "INCORRETO",
      "corrigido": true,
      "fonte_atual": "sefaz"
    },
    {
      "cnpj": "07754145000127",
      "nome": "POSTO SAO FRANCISCO DE ASSIS",
      "endereco": "ROD AL 101 SUL, 2150, BARRA MAR, BARRA DE SAO MIGUEL, AL, Brasil",
      "municipio": "BARRA DE SAO MIGUEL",
      "coordenadas_atuais": {
        "lat": -9.84,
        "lng": -35.90778
      },
      "coordenadas_google": {
        "lat": -9.6942704,
        "lng": -35.79027
      },
      "distancia_metros": 20698,
      "status": "INCORRETO",
      "corrigido": true,
      "fonte_atual": "opencage"
    },
    {
      "cnpj": "34036410000104",
      "nome": "POSTO ELITE",
      "endereco": "ROD AL-101, SN, BARRA MAR, BARRA DE SAO MIGUEL, AL, Brasil",
      "municipio": "BARRA DE SAO MIGUEL",
      "coordenadas_atuais": {
        "lat": -9.8330878,
        "lng": -35.897083
      },
      "coordenadas_google": {
        "lat": -9.6942704,
        "lng": -35.79027
      },
      "distancia_metros": 19372,
      "status": "INCORRETO",
      "corrigido": true,
      "fonte_atual": "sefaz"
    },
    {
      "cnpj": "23634984000168",
      "nome": "STELLA MARINA LTDA",
      "endereco": "Rua MANOEL RODRIGUES GOUVEIA, 239, CENTRO, BARRA DE SAO MIGUEL, AL, Brasil",
      "municipio": "BARRA DE SAO MIGUEL",
      "coordenadas_atuais": {
        "lat": -9.84,
        "lng": -35.90778
      },
      "coordenadas_google": {
        "lat": -9.8386716,
        "lng": -35.9096725
      },
      "distancia_metros": 255,
      "status": "SUSPEITO",
      "corrigido": false,
      "fonte_atual": "opencage"
    },
    {
      "cnpj": "11376961000111",
      "nome": "AUTO POSTO MC",
      "endereco": "Rua VALDEIR SANTANA SILVA, 5, CENTRO, BATALHA, AL, Brasil",
      "municipio": "BATALHA",
      "coordenadas_atuais": {
        "lat": -9.674948,
        "lng": -37.125839
      },
      "coordenadas_google": {
        "lat": -9.675124,
        "lng": -37.1326609
      },
      "distancia_metros": 748,
      "status": "INCORRETO",
      "corrigido": true,
      "fonte_atual": "sefaz"
    },
    {
      "cnpj": "12204558000178",
      "nome": "POSTO BATALHA",
      "endereco": "AV GOVERNADOR MUNIZ FALCAO, 11, CENTRO, BATALHA, AL, Brasil",
      "municipio": "BATALHA",
      "coordenadas_atuais": {
        "lat": -9.674044,
        "lng": -37.128221
      },
      "coordenadas_google": {
        "lat": -9.672892,
        "lng": -37.1357254
      },
      "distancia_metros": 833,
      "status": "INCORRETO",
      "corrigido": true,
      "fonte_atual": "sefaz"
    },
    {
      "cnpj": "15739214000151",
      "nome": "AUTO POSTO PAGUEMENOS",
      "endereco": "ROD AL 220, 1500, RODOVIA, BATALHA, AL, Brasil",
      "municipio": "BATALHA",
      "coordenadas_atuais": {
        "lat": -9.7734693,
        "lng": -36.0966998
      },
      "coordenadas_google": {
        "lat": -9.665694199999999,
        "lng": -37.1296186
      },
      "distancia_metros": 113839,
      "status": "INCORRETO",
      "corrigido": true,
      "fonte_atual": "sefaz"
    },
    {
      "cnpj": "41080965000119",
      "nome": "POSTO BELEM",
      "endereco": "ROD BR 316, 751, CENTRO, BELEM, AL, Brasil",
      "municipio": "BELEM",
      "coordenadas_atuais": {
        "lat": -9.40756719999999,
        "lng": -36.6876963
      },
      "coordenadas_google": {
        "lat": -9.3864034,
        "lng": -36.7726788
      },
      "distancia_metros": 9615,
      "status": "INCORRETO",
      "corrigido": true,
      "fonte_atual": "sefaz"
    },
    {
      "cnpj": "29276874000158",
      "nome": "MARCELA MARTINS DE LIMA - EPP",
      "endereco": "Rua BOA VISTA, 1, CENTRO, BELO MONTE, AL, Brasil",
      "municipio": "BELO MONTE",
      "coordenadas_atuais": {
        "lat": -23.4618397,
        "lng": -51.8741779
      },
      "coordenadas_google": {
        "lat": -9.826763999999999,
        "lng": -37.275574
      },
      "distancia_metros": 2168409,
      "status": "INCORRETO",
      "corrigido": true,
      "fonte_atual": "sefaz"
    },
    {
      "cnpj": "31122428000130",
      "nome": "POSTO SANTA RITA",
      "endereco": "ROD AL 215 KM 11, 1717, ZONA RURAL, BOCA DA MATA, AL, Brasil",
      "municipio": "BOCA DA MATA",
      "coordenadas_atuais": {
        "lat": -9.663338,
        "lng": -36.084506
      },
      "coordenadas_google": {
        "lat": -9.6580569,
        "lng": -36.1645628
      },
      "distancia_metros": 8795,
      "status": "INCORRETO",
      "corrigido": true,
      "fonte_atual": "sefaz"
    },
    {
      "cnpj": "02970015000108",
      "nome": "POSTO SAFRA",
      "endereco": "RDV AL 215  KM 056, SN, ZONA RURAL, BOCA DA MATA, AL, Brasil",
      "municipio": "BOCA DA MATA",
      "coordenadas_atuais": {
        "lat": -9.637674,
        "lng": -36.21101
      },
      "coordenadas_google": {
        "lat": -9.6580569,
        "lng": -36.1645628
      },
      "distancia_metros": 5573,
      "status": "INCORRETO",
      "corrigido": true,
      "fonte_atual": "sefaz"
    },
    {
      "cnpj": "26718857000216",
      "nome": "POSTO TRIUNFO",
      "endereco": "Rua DR PRADO OMENA, 280, CENTRO, BRANQUINHA, AL, Brasil",
      "municipio": "BRANQUINHA",
      "coordenadas_atuais": {
        "lat": -9.24556,
        "lng": -36.01528
      },
      "coordenadas_google": {
        "lat": -9.2445293,
        "lng": -36.0132688
      },
      "distancia_metros": 249,
      "status": "SUSPEITO",
      "corrigido": false,
      "fonte_atual": "opencage"
    },
    {
      "cnpj": "13631547000137",
      "nome": "POSTO MINADOR",
      "endereco": "ROD POVOADO MINADOR DO LUCIO, SN, ZONA RURAL, CACIMBINHAS, AL, Brasil",
      "municipio": "CACIMBINHAS",
      "coordenadas_atuais": {
        "lat": -9.3995816,
        "lng": -36.9267589
      },
      "coordenadas_google": {
        "lat": -9.4000826,
        "lng": -36.9242609
      },
      "distancia_metros": 280,
      "status": "SUSPEITO",
      "corrigido": false,
      "fonte_atual": "sefaz"
    },
    {
      "cnpj": "05560272000160",
      "nome": "AUTO POSTO VITORINO",
      "endereco": " BR 316, S/N, ZONA RURAL, CACIMBINHAS, AL, Brasil",
      "municipio": "CACIMBINHAS",
      "coordenadas_atuais": {
        "lat": -9.404568099999999,
        "lng": -36.9910042
      },
      "coordenadas_google": {
        "lat": -9.3864034,
        "lng": -36.7726788
      },
      "distancia_metros": 24036,
      "status": "INCORRETO",
      "corrigido": true,
      "fonte_atual": "sefaz"
    },
    {
      "cnpj": "08777265000102",
      "nome": "AUTO POSTO ESTRELA",
      "endereco": "FAZ CAMPO FORMOSO, S/N, ZONA RURAL, CAJUEIRO, AL, Brasil",
      "municipio": "CAJUEIRO",
      "coordenadas_atuais": {
        "lat": -9.371805,
        "lng": -36.163776
      },
      "coordenadas_google": {
        "lat": -10.5085822,
        "lng": -40.3224547
      },
      "distancia_metros": 472686,
      "status": "INCORRETO",
      "corrigido": true,
      "fonte_atual": "sefaz"
    },
    {
      "cnpj": "44687105000136",
      "nome": "POSTO LIVRAMENTO",
      "endereco": "ROD AL 210, KM 32, S/N, ZONA RURAL, CAJUEIRO, AL, Brasil",
      "municipio": "CAJUEIRO",
      "coordenadas_atuais": {
        "lat": -9.71667,
        "lng": -36.45
      },
      "coordenadas_google": {
        "lat": -9.3817159,
        "lng": -36.1640066
      },
      "distancia_metros": 48690,
      "status": "INCORRETO",
      "corrigido": true,
      "fonte_atual": "opencage"
    },
    {
      "cnpj": "41160201000133",
      "nome": "AUTO POSTO CAMPESTRE",
      "endereco": "AV TANCREDO DE ALMEIDA NEVES, 290, CENTRO, CAMPESTRE, AL, Brasil",
      "municipio": "CAMPESTRE",
      "coordenadas_atuais": {
        "lat": -8.8490345,
        "lng": -35.5676693
      },
      "coordenadas_google": {
        "lat": -8.852602,
        "lng": -35.569271
      },
      "distancia_metros": 434,
      "status": "SUSPEITO",
      "corrigido": false,
      "fonte_atual": "sefaz"
    },
    {
      "cnpj": "02991589000324",
      "nome": "POSTO 4 RODAS II",
      "endereco": "RDV BR 101, 1, LUZIAPOLIS, CAMPO ALEGRE, AL, Brasil",
      "municipio": "CAMPO ALEGRE",
      "coordenadas_atuais": {
        "lat": -10.1172981,
        "lng": -36.768521
      },
      "coordenadas_google": {
        "lat": -9.6065836,
        "lng": -36.0268827
      },
      "distancia_metros": 99127,
      "status": "INCORRETO",
      "corrigido": true,
      "fonte_atual": "sefaz"
    },
    {
      "cnpj": "09280439000190",
      "nome": "AUTO POSTO CAMPO ALEGRE LTDA",
      "endereco": "RDV AL 22O KM 36, S/N, ZONA RURAL, CAMPO ALEGRE, AL, Brasil",
      "municipio": "CAMPO ALEGRE",
      "coordenadas_atuais": {
        "lat": -9.781555599999999,
        "lng": -36.3440973
      },
      "coordenadas_google": {
        "lat": -9.778120999999999,
        "lng": -36.3540945
      },
      "distancia_metros": 1160,
      "status": "INCORRETO",
      "corrigido": true,
      "fonte_atual": "sefaz"
    },
    {
      "cnpj": "07583696000175",
      "nome": "POSTO AGRESTE",
      "endereco": "ROD AL-220, KM 36, 345, SAO FRANCISCO, CAMPO ALEGRE, AL, Brasil",
      "municipio": "CAMPO ALEGRE",
      "coordenadas_atuais": {
        "lat": -9.78194,
        "lng": -36.35083
      },
      "coordenadas_google": {
        "lat": -9.778120999999999,
        "lng": -36.3540945
      },
      "distancia_metros": 555,
      "status": "INCORRETO",
      "corrigido": true,
      "fonte_atual": "opencage"
    },
    {
      "cnpj": "11968667000107",
      "nome": "POSTO NOSSA SENHORA APARECIDA",
      "endereco": "AV EUGENIA ALBUQUERQUE, 50, LUZIAPOLIS, CAMPO ALEGRE, AL, Brasil",
      "municipio": "CAMPO ALEGRE",
      "coordenadas_atuais": {
        "lat": -9.9041795,
        "lng": -36.2203955
      },
      "coordenadas_google": {
        "lat": -9.783125499999999,
        "lng": -36.3507806
      },
      "distancia_metros": 19628,
      "status": "INCORRETO",
      "corrigido": true,
      "fonte_atual": "sefaz"
    },
    {
      "cnpj": "09276007000105",
      "nome": "AUTOPEL",
      "endereco": "Rua JOAO F DE SANTANA, S/N, CENTRO, CAMPO GRANDE, AL, Brasil",
      "municipio": "CAMPO GRANDE",
      "coordenadas_atuais": {
        "lat": -9.5713058,
        "lng": -36.7819505
      },
      "coordenadas_google": {
        "lat": -9.9558187,
        "lng": -36.7929475
      },
      "distancia_metros": 42773,
      "status": "INCORRETO",
      "corrigido": true,
      "fonte_atual": "sefaz"
    },
    {
      "cnpj": "24938944000172",
      "nome": "AUTO POSTO VELL",
      "endereco": "Rua NOVA, SN, CENTRO, CANAPI, AL, Brasil",
      "municipio": "CANAPI",
      "coordenadas_atuais": {
        "lat": -9.117225,
        "lng": -37.604013
      },
      "coordenadas_google": {
        "lat": -10.2967034,
        "lng": -36.5782486
      },
      "distancia_metros": 172743,
      "status": "INCORRETO",
      "corrigido": true,
      "fonte_atual": "sefaz"
    },
    {
      "cnpj": "54983925000129",
      "nome": "AUTO POSTO GPL II",
      "endereco": "AV JOAQUIM TETE, 1317, TANCREDO NEVES, CANAPI, AL, Brasil",
      "municipio": "CANAPI",
      "coordenadas_atuais": {
        "lat": -9.1179605,
        "lng": -37.6037243
      },
      "coordenadas_google": {
        "lat": -9.1183068,
        "lng": -37.5996678
      },
      "distancia_metros": 447,
      "status": "SUSPEITO",
      "corrigido": false,
      "fonte_atual": "opencage"
    },
    {
      "cnpj": "28451142000194",
      "nome": "AUTO POSTO VAN LTDA - EPP",
      "endereco": "AV JOAQUIM TETE, 1602, TANCREDO NEVES, CANAPI, AL, Brasil",
      "municipio": "CANAPI",
      "coordenadas_atuais": {
        "lat": -9.1176632,
        "lng": -37.6038522
      },
      "coordenadas_google": {
        "lat": -9.1181159,
        "lng": -37.59781
      },
      "distancia_metros": 665,
      "status": "INCORRETO",
      "corrigido": true,
      "fonte_atual": "sefaz"
    },
    {
      "cnpj": "27246281000113",
      "nome": "AUTO POSTO KELLY BEZERRA",
      "endereco": "ROD POVOADO CARIE - BR 316, SN, ZONA RURAL, CANAPI, AL, Brasil",
      "municipio": "CANAPI",
      "coordenadas_atuais": {
        "lat": -9.189925,
        "lng": -37.51899
      },
      "coordenadas_google": {
        "lat": -9.1942013,
        "lng": -37.5149017
      },
      "distancia_metros": 654,
      "status": "INCORRETO",
      "corrigido": true,
      "fonte_atual": "sefaz"
    },
    {
      "cnpj": "24296959000184",
      "nome": "AUTO POSTO KELLY BEZERRA III",
      "endereco": "ROD BR 423 KM 26, 26, POVOADO CARIE, CANAPI, AL, Brasil",
      "municipio": "CANAPI",
      "coordenadas_atuais": {
        "lat": -9.11694,
        "lng": -37.60222
      },
      "coordenadas_google": {
        "lat": -9.1942013,
        "lng": -37.5149017
      },
      "distancia_metros": 12872,
      "status": "INCORRETO",
      "corrigido": true,
      "fonte_atual": "opencage"
    },
    {
      "cnpj": "35831352000173",
      "nome": "AUTO POSTO LIMEIRINHA",
      "endereco": "SIT CAPIA DA IGREJINHA, SN, ZONA RURAL, CANAPI, AL, Brasil",
      "municipio": "CANAPI",
      "coordenadas_atuais": {
        "lat": -9.11694,
        "lng": -37.60222
      },
      "coordenadas_google": {
        "lat": -9.137236399999999,
        "lng": -37.4282051
      },
      "distancia_metros": 19237,
      "status": "INCORRETO",
      "corrigido": true,
      "fonte_atual": "opencage"
    },
    {
      "cnpj": "07639999000162",
      "nome": "AUTO POSTO CAPELA",
      "endereco": "AV JULIETA MOREIRA MELO, 002, CENTRO, CAPELA, AL, Brasil",
      "municipio": "CAPELA",
      "coordenadas_atuais": {
        "lat": -9.412418800000001,
        "lng": -36.0762785
      },
      "coordenadas_google": {
        "lat": -9.410925599999999,
        "lng": -36.0747714
      },
      "distancia_metros": 234,
      "status": "SUSPEITO",
      "corrigido": false,
      "fonte_atual": "sefaz"
    },
    {
      "cnpj": "00994685000139",
      "nome": "AUTO POSTO CARNEIROS",
      "endereco": "Rua TIRADENTES, 210, CENTRO, CARNEIROS, AL, Brasil",
      "municipio": "CARNEIROS",
      "coordenadas_atuais": {
        "lat": -9.4828391,
        "lng": -37.376628
      },
      "coordenadas_google": {
        "lat": -9.663207,
        "lng": -35.7542711
      },
      "distancia_metros": 179013,
      "status": "INCORRETO",
      "corrigido": true,
      "fonte_atual": "sefaz"
    },
    {
      "cnpj": "36996902000177",
      "nome": "POSTO PREMIUM",
      "endereco": "Rua PADRE CICERO, 584, CENTRO, CARNEIROS, AL, Brasil",
      "municipio": "CARNEIROS",
      "coordenadas_atuais": {
        "lat": -9.4825,
        "lng": -37.37722
      },
      "coordenadas_google": {
        "lat": -9.4862714,
        "lng": -37.3693366
      },
      "distancia_metros": 961,
      "status": "INCORRETO",
      "corrigido": true,
      "fonte_atual": "opencage"
    },
    {
      "cnpj": "08515249000141",
      "nome": "POSBRAL - POSTO BRANDAO EIRELI ME",
      "endereco": "Rua OTHON CORREIA, 03, CENTRO, CHA PRETA, AL, Brasil",
      "municipio": "CHA PRETA",
      "coordenadas_atuais": {
        "lat": -9.2571423,
        "lng": -36.2987092
      },
      "coordenadas_google": {
        "lat": -9.2615689,
        "lng": -36.2961753
      },
      "distancia_metros": 565,
      "status": "INCORRETO",
      "corrigido": true,
      "fonte_atual": "sefaz"
    },
    {
      "cnpj": "15598179000106",
      "nome": "POSTO AS",
      "endereco": "ROD AL 110, SN, ZONA RURAL, CHA PRETA, AL, Brasil",
      "municipio": "CHA PRETA",
      "coordenadas_atuais": {
        "lat": -9.256988,
        "lng": -36.2990104
      },
      "coordenadas_google": {
        "lat": -9.2783675,
        "lng": -36.296161
      },
      "distancia_metros": 2398,
      "status": "INCORRETO",
      "corrigido": true,
      "fonte_atual": "sefaz"
    },
    {
      "cnpj": "61964063000152",
      "nome": "POSTO COITE",
      "endereco": "ROD AL 110, SN, ZONA RURAL, COITE DO NOIA, AL, Brasil",
      "municipio": "COITE DO NOIA",
      "coordenadas_atuais": {
        "lat": -9.63222,
        "lng": -36.57861
      },
      "coordenadas_google": {
        "lat": -9.6579404,
        "lng": -36.5081037
      },
      "distancia_metros": 8241,
      "status": "INCORRETO",
      "corrigido": true,
      "fonte_atual": "opencage"
    },
    {
      "cnpj": "42377369000168",
      "nome": "POSTO TENORIO",
      "endereco": "Rua RUA QUINZE DE NOVEMBRO, S/N, CENTRO, COITE DO NOIA, AL, Brasil",
      "municipio": "COITE DO NOIA",
      "coordenadas_atuais": {
        "lat": -9.63222,
        "lng": -36.57861
      },
      "coordenadas_google": {
        "lat": -9.6337356,
        "lng": -36.5810565
      },
      "distancia_metros": 317,
      "status": "SUSPEITO",
      "corrigido": false,
      "fonte_atual": "opencage"
    },
    {
      "cnpj": "14341647000272",
      "nome": "AUTO POSTO CASTELIANO",
      "endereco": "LOT JARDIM 2, SN, LOTEAMENTO JARDIM, COLONIA LEOPOLDINA, AL, Brasil",
      "municipio": "COLONIA LEOPOLDINA",
      "coordenadas_atuais": {
        "lat": -8.982249399999999,
        "lng": -35.784354
      },
      "coordenadas_google": {
        "lat": -8.911065599999999,
        "lng": -35.7216919
      },
      "distancia_metros": 10489,
      "status": "INCORRETO",
      "corrigido": true,
      "fonte_atual": "sefaz"
    },
    {
      "cnpj": "29853107000164",
      "nome": "POSTO CORURIPE",
      "endereco": "AV COMENDADOR TERCIO WANDERLEY, 856, CENTRO, CORURIPE, AL, Brasil",
      "municipio": "CORURIPE",
      "coordenadas_atuais": {
        "lat": -10.12556,
        "lng": -36.17556
      },
      "coordenadas_google": {
        "lat": -10.1320859,
        "lng": -36.1756701
      },
      "distancia_metros": 726,
      "status": "INCORRETO",
      "corrigido": true,
      "fonte_atual": "opencage"
    },
    {
      "cnpj": "55681612000189",
      "nome": "POSTO LAGOA",
      "endereco": "AV L, 84, LAGOA DO PAU, CORURIPE, AL, Brasil",
      "municipio": "CORURIPE",
      "coordenadas_atuais": {
        "lat": -10.12556,
        "lng": -36.17556
      },
      "coordenadas_google": {
        "lat": -10.1235888,
        "lng": -36.1721409
      },
      "distancia_metros": 434,
      "status": "SUSPEITO",
      "corrigido": false,
      "fonte_atual": "opencage"
    },
    {
      "cnpj": "56141661000191",
      "nome": "ARAUJO E MORAES COMERCIO DE COMBUSTIVEIS LTDA",
      "endereco": "ROD VEREADOR JORGE VENANCIO dos santos, 68, pindorama, CORURIPE, AL, Brasil",
      "municipio": "CORURIPE",
      "coordenadas_atuais": {
        "lat": -10.1522,
        "lng": -36.32836
      },
      "coordenadas_google": {
        "lat": -10.1184446,
        "lng": -36.1666237
      },
      "distancia_metros": 18097,
      "status": "INCORRETO",
      "corrigido": true,
      "fonte_atual": "opencage"
    },
    {
      "cnpj": "33600518000115",
      "nome": "TOP POSTO CORURIPE",
      "endereco": "ROD ENGENHEIRO GUTTEMBERG BREDA NETO, 2031, ALTO DA SAUDADE, CORURIPE, AL, Brasil",
      "municipio": "CORURIPE",
      "coordenadas_atuais": {
        "lat": -10.12556,
        "lng": -36.17556
      },
      "coordenadas_google": {
        "lat": -10.1593843,
        "lng": -36.1351076
      },
      "distancia_metros": 5810,
      "status": "INCORRETO",
      "corrigido": true,
      "fonte_atual": "opencage"
    },
    {
      "cnpj": "09081895000100",
      "nome": "POSTO SAO PEDRO III",
      "endereco": "ROD GUTTEMBERG BREDA NETO, 3145/A, COMENDADOR TERCIO WANDERLEY, CORURIPE, AL, Brasil",
      "municipio": "CORURIPE",
      "coordenadas_atuais": {
        "lat": -10.139914,
        "lng": -36.1627961
      },
      "coordenadas_google": {
        "lat": -10.1320859,
        "lng": -36.1756701
      },
      "distancia_metros": 1656,
      "status": "INCORRETO",
      "corrigido": true,
      "fonte_atual": "sefaz"
    },
    {
      "cnpj": "07824798000488",
      "nome": "COOPERATIVA DOS AGRICULTORES FAMILIARES E DOS EMPREENDIMENTOS SOLIDARIOS",
      "endereco": "Rua A, 11, POVOADO PONTAL DE CORURIPE, CORURIPE, AL, Brasil",
      "municipio": "CORURIPE",
      "coordenadas_atuais": {
        "lat": -10.1224581,
        "lng": -36.1620174
      },
      "coordenadas_google": {
        "lat": -10.1220172,
        "lng": -36.1810928
      },
      "distancia_metros": 2089,
      "status": "INCORRETO",
      "corrigido": true,
      "fonte_atual": "opencage"
    },
    {
      "cnpj": "37919380000172",
      "nome": "AUTO POSTO J C",
      "endereco": "ROD AL 220 KM 22, S/N, DT FOLHA MIUDA, CRAIBAS, AL, Brasil",
      "municipio": "CRAIBAS",
      "coordenadas_atuais": {
        "lat": -9.61806,
        "lng": -36.76806
      },
      "coordenadas_google": {
        "lat": -9.7016364,
        "lng": -36.79428060000001
      },
      "distancia_metros": 9728,
      "status": "INCORRETO",
      "corrigido": true,
      "fonte_atual": "opencage"
    },
    {
      "cnpj": "16986565000120",
      "nome": "POSTO ALIANÇA",
      "endereco": "PC SAO PEDRO, 01, CENTRO, CRAIBAS, AL, Brasil",
      "municipio": "CRAIBAS",
      "coordenadas_atuais": {
        "lat": -9.618775,
        "lng": -36.7690264
      },
      "coordenadas_google": {
        "lat": -9.6167945,
        "lng": -36.7689394
      },
      "distancia_metros": 220,
      "status": "SUSPEITO",
      "corrigido": false,
      "fonte_atual": "sefaz"
    },
    {
      "cnpj": "11984917000194",
      "nome": "AUTO POSTO MIX",
      "endereco": "Rua PEDRO GAMA, 303, CENTRO, CRAIBAS, AL, Brasil",
      "municipio": "CRAIBAS",
      "coordenadas_atuais": {
        "lat": -9.614823,
        "lng": -36.7690849
      },
      "coordenadas_google": {
        "lat": -9.6180881,
        "lng": -36.7660207
      },
      "distancia_metros": 495,
      "status": "SUSPEITO",
      "corrigido": false,
      "fonte_atual": "sefaz"
    },
    {
      "cnpj": "17348259000392",
      "nome": "POSTO ALINE LTDA",
      "endereco": "Rua SAO SEBASTIAO, 500, DISTRITO SAO SEBASTIAO, DELMIRO GOUVEIA, AL, Brasil",
      "municipio": "DELMIRO GOUVEIA",
      "coordenadas_atuais": {
        "lat": -9.394143,
        "lng": -37.9968955
      },
      "coordenadas_google": {
        "lat": -9.9313395,
        "lng": -36.5547687
      },
      "distancia_metros": 168991,
      "status": "INCORRETO",
      "corrigido": true,
      "fonte_atual": "opencage"
    },
    {
      "cnpj": "43472899000158",
      "nome": "POSTO MANDACARU",
      "endereco": "ROD BR 423, 22295, POVOADO JARDIM CORDEIRO, DELMIRO GOUVEIA, AL, Brasil",
      "municipio": "DELMIRO GOUVEIA",
      "coordenadas_atuais": {
        "lat": -9.38333,
        "lng": -38.11667
      },
      "coordenadas_google": {
        "lat": -9.3706958,
        "lng": -38.1003188
      },
      "distancia_metros": 2279,
      "status": "INCORRETO",
      "corrigido": true,
      "fonte_atual": "opencage"
    },
    {
      "cnpj": "45685725000107",
      "nome": "AUTO POSTO NOSSA SRA DO ROSARIO LTDA",
      "endereco": "Rua FLORIANO PEIXOTO, 445, CENTRO, DELMIRO GOUVEIA, AL, Brasil",
      "municipio": "DELMIRO GOUVEIA",
      "coordenadas_atuais": {
        "lat": -9.38861,
        "lng": -37.99917
      },
      "coordenadas_google": {
        "lat": -9.3773343,
        "lng": -37.996168
      },
      "distancia_metros": 1296,
      "status": "INCORRETO",
      "corrigido": true,
      "fonte_atual": "opencage"
    },
    {
      "cnpj": "04431113000100",
      "nome": "POSTO NENZITA",
      "endereco": "AV CAXANGA, 126, PEDRA VELHA, DELMIRO GOUVEIA, AL, Brasil",
      "municipio": "DELMIRO GOUVEIA",
      "coordenadas_atuais": {
        "lat": -9.3868928,
        "lng": -37.9911577
      },
      "coordenadas_google": {
        "lat": -9.3864843,
        "lng": -37.9922569
      },
      "distancia_metros": 129,
      "status": "SUSPEITO",
      "corrigido": false,
      "fonte_atual": "sefaz"
    },
    {
      "cnpj": "26937274000103",
      "nome": "POSTO BOM SOSSEGO",
      "endereco": "AV MANOEL RIBEIRO, 457 A, BOM SOSSEGO, DELMIRO GOUVEIA, AL, Brasil",
      "municipio": "DELMIRO GOUVEIA",
      "coordenadas_atuais": {
        "lat": -9.38861,
        "lng": -37.99917
      },
      "coordenadas_google": {
        "lat": -9.367264200000001,
        "lng": -37.9915003
      },
      "distancia_metros": 2518,
      "status": "INCORRETO",
      "corrigido": true,
      "fonte_atual": "opencage"
    },
    {
      "cnpj": "17348259000201",
      "nome": "POSTO ALINE LTDA",
      "endereco": "AV ANTONIO JOSE DA COSTA, 59, CENTRO, DELMIRO GOUVEIA, AL, Brasil",
      "municipio": "DELMIRO GOUVEIA",
      "coordenadas_atuais": {
        "lat": -9.38861,
        "lng": -37.99917
      },
      "coordenadas_google": {
        "lat": -9.3804252,
        "lng": -38.0044369
      },
      "distancia_metros": 1078,
      "status": "INCORRETO",
      "corrigido": true,
      "fonte_atual": "opencage"
    },
    {
      "cnpj": "17348259000120",
      "nome": "POSTO ALINE",
      "endereco": "ROD AL 145, SN, CIDADE UNIVERSITARIA, DELMIRO GOUVEIA, AL, Brasil",
      "municipio": "DELMIRO GOUVEIA",
      "coordenadas_atuais": {
        "lat": -9.3477979,
        "lng": -37.986385
      },
      "coordenadas_google": {
        "lat": -9.3649783,
        "lng": -37.9906863
      },
      "distancia_metros": 1968,
      "status": "INCORRETO",
      "corrigido": true,
      "fonte_atual": "sefaz"
    },
    {
      "cnpj": "05518639000268",
      "nome": "POSTO DA PEDRA 2",
      "endereco": "Rua HELENO PEREIRA PINTO, 31, CAMPO GRANDE, DELMIRO GOUVEIA, AL, Brasil",
      "municipio": "DELMIRO GOUVEIA",
      "coordenadas_atuais": {
        "lat": -9.376377999999999,
        "lng": -37.9971771
      },
      "coordenadas_google": {
        "lat": -9.3898127,
        "lng": -38.00058689999999
      },
      "distancia_metros": 1540,
      "status": "INCORRETO",
      "corrigido": true,
      "fonte_atual": "sefaz"
    },
    {
      "cnpj": "12436978000180",
      "nome": "POSTO ALDO",
      "endereco": "Rua FLORIANO PEIXOTO, 247, CENTRO, DELMIRO GOUVEIA, AL, Brasil",
      "municipio": "DELMIRO GOUVEIA",
      "coordenadas_atuais": {
        "lat": -9.3759976,
        "lng": -37.9963113
      },
      "coordenadas_google": {
        "lat": -9.380152899999999,
        "lng": -37.9971343
      },
      "distancia_metros": 471,
      "status": "SUSPEITO",
      "corrigido": false,
      "fonte_atual": "sefaz"
    },
    {
      "cnpj": "57932086000108",
      "nome": "POSTO CAETÉ",
      "endereco": "AV Presidente Castelo Branco, 60, Centro, DELMIRO GOUVEIA, AL, Brasil",
      "municipio": "DELMIRO GOUVEIA",
      "coordenadas_atuais": {
        "lat": -9.38861,
        "lng": -37.99917
      },
      "coordenadas_google": {
        "lat": -9.382854499999999,
        "lng": -37.9966618
      },
      "distancia_metros": 697,
      "status": "INCORRETO",
      "corrigido": true,
      "fonte_atual": "opencage"
    },
    {
      "cnpj": "10230405000170",
      "nome": "AUTO POSTO TANGARA",
      "endereco": "AV PASTOR MANOEL PEREIRA LIMA, 457, PASTOR OZORIO BRAZ, DOIS RIACHOS, AL, Brasil",
      "municipio": "DOIS RIACHOS",
      "coordenadas_atuais": {
        "lat": -9.3892335,
        "lng": -37.09705090000001
      },
      "coordenadas_google": {
        "lat": -9.3871393,
        "lng": -37.0833807
      },
      "distancia_metros": 1518,
      "status": "INCORRETO",
      "corrigido": true,
      "fonte_atual": "sefaz"
    },
    {
      "cnpj": "29689769000140",
      "nome": "AUTO POSTO TURMALINA",
      "endereco": "ROD BR 316, KM 136, MATA BURRO, ESTRELA DE ALAGOAS, AL, Brasil",
      "municipio": "ESTRELA DE ALAGOAS",
      "coordenadas_atuais": {
        "lat": -9.3904105,
        "lng": -36.7592457
      },
      "coordenadas_google": {
        "lat": -9.389841299999999,
        "lng": -36.8153286
      },
      "distancia_metros": 6153,
      "status": "INCORRETO",
      "corrigido": true,
      "fonte_atual": "sefaz"
    },
    {
      "cnpj": "25359544000175",
      "nome": "LFS COMERCIO DE COMBUSTIVEIS EIRELI - ME",
      "endereco": "ROD BR 316 POVOADO ALTO DA BOA VISTA, SN, ZONA RURAL, ESTRELA DE ALAGOAS, AL, Brasil",
      "municipio": "ESTRELA DE ALAGOAS",
      "coordenadas_atuais": {
        "lat": -9.490857100000001,
        "lng": -36.5661638
      },
      "coordenadas_google": {
        "lat": -9.3908042,
        "lng": -36.7569676
      },
      "distancia_metros": 23702,
      "status": "INCORRETO",
      "corrigido": true,
      "fonte_atual": "sefaz"
    },
    {
      "cnpj": "58591986000100",
      "nome": "POSTO TREVO",
      "endereco": "ROD AL 101 SUL - KM 25, 2002, ENTROCAMENTO FELIZ DESERTO, FELIZ DESERTO, AL, Brasil",
      "municipio": "FELIZ DESERTO",
      "coordenadas_atuais": {
        "lat": -10.29194,
        "lng": -36.30611
      },
      "coordenadas_google": {
        "lat": -10.2986188,
        "lng": -36.3029858
      },
      "distancia_metros": 818,
      "status": "INCORRETO",
      "corrigido": true,
      "fonte_atual": "opencage"
    },
    {
      "cnpj": "14959585000186",
      "nome": "AUTO POSTO SANTO EXPEDITO",
      "endereco": "ROD 1 AL 430 ZONA RURAL DE FLEXEIRAS, 07, RURAL, FLEXEIRAS, AL, Brasil",
      "municipio": "FLEXEIRAS",
      "coordenadas_atuais": {
        "lat": -9.27743,
        "lng": -35.72368
      },
      "coordenadas_google": {
        "lat": -9.2483162,
        "lng": -35.4946045
      },
      "distancia_metros": 25347,
      "status": "INCORRETO",
      "corrigido": true,
      "fonte_atual": "sefaz"
    },
    {
      "cnpj": "33296262000102",
      "nome": "AUTO POSTO 3 M",
      "endereco": "Rua DR.JOSE BENTO, 30, NOSSA SENHORA DA CONCEICAO, GIRAU DO PONCIANO, AL, Brasil",
      "municipio": "GIRAU DO PONCIANO",
      "coordenadas_atuais": {
        "lat": -9.8749471,
        "lng": -36.8480198
      },
      "coordenadas_google": {
        "lat": -9.8822954,
        "lng": -36.8309985
      },
      "distancia_metros": 2036,
      "status": "INCORRETO",
      "corrigido": true,
      "fonte_atual": "opencage"
    },
    {
      "cnpj": "09657072000180",
      "nome": "AUTO POSTO KILTER LTDA",
      "endereco": "ROD AL 115, 800, DISTRITO INDUSTRIAL, GIRAU DO PONCIANO, AL, Brasil",
      "municipio": "GIRAU DO PONCIANO",
      "coordenadas_atuais": {
        "lat": -9.882258799999999,
        "lng": -36.8186161
      },
      "coordenadas_google": {
        "lat": -9.878161,
        "lng": -36.8149154
      },
      "distancia_metros": 610,
      "status": "INCORRETO",
      "corrigido": true,
      "fonte_atual": "sefaz"
    },
    {
      "cnpj": "08422115000348",
      "nome": "AUTOPEL",
      "endereco": "AV TIRADENTES, SN, CENTRO, GIRAU DO PONCIANO, AL, Brasil",
      "municipio": "GIRAU DO PONCIANO",
      "coordenadas_atuais": {
        "lat": -9.883111,
        "lng": -36.8272288
      },
      "coordenadas_google": {
        "lat": -9.8836113,
        "lng": -36.8242109
      },
      "distancia_metros": 335,
      "status": "SUSPEITO",
      "corrigido": false,
      "fonte_atual": "sefaz"
    },
    {
      "cnpj": "17830342000131",
      "nome": "POSTO NOSSA SENHORA DA CONCEICAO",
      "endereco": "Rua FERNANDO COLLOR DE MELLO, 20, CANAFISTULA, GIRAU DO PONCIANO, AL, Brasil",
      "municipio": "GIRAU DO PONCIANO",
      "coordenadas_atuais": {
        "lat": -9.882830799999999,
        "lng": -36.8305595
      },
      "coordenadas_google": {
        "lat": -9.795041999999999,
        "lng": -36.7938946
      },
      "distancia_metros": 10556,
      "status": "INCORRETO",
      "corrigido": true,
      "fonte_atual": "sefaz"
    },
    {
      "cnpj": "08422115000186",
      "nome": "AUTOPEL",
      "endereco": "RDV AL 115, SN, PROGRESSO, GIRAU DO PONCIANO, AL, Brasil",
      "municipio": "GIRAU DO PONCIANO",
      "coordenadas_atuais": {
        "lat": -9.8855612,
        "lng": -36.8209998
      },
      "coordenadas_google": {
        "lat": -9.8739728,
        "lng": -36.8119324
      },
      "distancia_metros": 1627,
      "status": "INCORRETO",
      "corrigido": true,
      "fonte_atual": "sefaz"
    },
    {
      "cnpj": "11457014000155",
      "nome": "AUTO POSTO TOP LINE",
      "endereco": "Rua DRA JANETE DE ARAUJO, 227, CENTRO, IBATEGUARA, AL, Brasil",
      "municipio": "IBATEGUARA",
      "coordenadas_atuais": {
        "lat": -8.968526599999999,
        "lng": -35.9246712
      },
      "coordenadas_google": {
        "lat": -8.9658752,
        "lng": -35.9212148
      },
      "distancia_metros": 481,
      "status": "SUSPEITO",
      "corrigido": false,
      "fonte_atual": "sefaz"
    },
    {
      "cnpj": "37308725000151",
      "nome": "AUTO POSTO TANQUE CHEIO",
      "endereco": "Rua DRA JANETE DE ARAUJO, 360, CENTRO, IBATEGUARA, AL, Brasil",
      "municipio": "IBATEGUARA",
      "coordenadas_atuais": {
        "lat": -8.9725,
        "lng": -35.93944
      },
      "coordenadas_google": {
        "lat": -8.9658752,
        "lng": -35.9212148
      },
      "distancia_metros": 2133,
      "status": "INCORRETO",
      "corrigido": true,
      "fonte_atual": "opencage"
    },
    {
      "cnpj": "22442762000261",
      "nome": "AUTO POSTO SEGURO TOP FLEX",
      "endereco": "SIT CALDEIRAO, S/N, ZONA RURAL, IGACI, AL, Brasil",
      "municipio": "IGACI",
      "coordenadas_atuais": {
        "lat": -9.53694,
        "lng": -36.63361
      },
      "coordenadas_google": {
        "lat": -9.537613799999999,
        "lng": -36.6305904
      },
      "distancia_metros": 339,
      "status": "SUSPEITO",
      "corrigido": false,
      "fonte_atual": "opencage"
    },
    {
      "cnpj": "61923139000100",
      "nome": "POSTO PREMIUM",
      "endereco": "ROD AL 115, S/N, ZONA RURAL, IGACI, AL, Brasil",
      "municipio": "IGACI",
      "coordenadas_atuais": {
        "lat": -9.53694,
        "lng": -36.63361
      },
      "coordenadas_google": {
        "lat": -9.5570658,
        "lng": -36.6614911
      },
      "distancia_metros": 3789,
      "status": "INCORRETO",
      "corrigido": true,
      "fonte_atual": "opencage"
    },
    {
      "cnpj": "05019078000171",
      "nome": "AUTO POSTO JP LTDA - EPP",
      "endereco": "RDV AL 115, S/N, ZONA RURAL, IGACI, AL, Brasil",
      "municipio": "IGACI",
      "coordenadas_atuais": {
        "lat": -9.543047699999999,
        "lng": -36.6506562
      },
      "coordenadas_google": {
        "lat": -9.5570658,
        "lng": -36.6614911
      },
      "distancia_metros": 1960,
      "status": "INCORRETO",
      "corrigido": true,
      "fonte_atual": "sefaz"
    },
    {
      "cnpj": "55682117000194",
      "nome": "posto perucaba",
      "endereco": "ROD AL 110, S/N, ZONA RURAL, IGREJA NOVA, AL, Brasil",
      "municipio": "IGREJA NOVA",
      "coordenadas_atuais": {
        "lat": -10.12528,
        "lng": -36.66194
      },
      "coordenadas_google": {
        "lat": -10.1175443,
        "lng": -36.5433333
      },
      "distancia_metros": 13012,
      "status": "INCORRETO",
      "corrigido": true,
      "fonte_atual": "opencage"
    },
    {
      "cnpj": "19739379000184",
      "nome": "AUTO POSTO JA",
      "endereco": "ROD AL 225, S/N, CENTRO, IGREJA NOVA, AL, Brasil",
      "municipio": "IGREJA NOVA",
      "coordenadas_atuais": {
        "lat": -10.0830464,
        "lng": -36.5661908
      },
      "coordenadas_google": {
        "lat": -10.1245358,
        "lng": -36.6565863
      },
      "distancia_metros": 10918,
      "status": "INCORRETO",
      "corrigido": true,
      "fonte_atual": "sefaz"
    },
    {
      "cnpj": "02850879000277",
      "nome": "AUTO POSTO ALVES",
      "endereco": "AV POMPILIO BRANDAO DE ALCANTARA, 1192, CENTRO, INHAPI, AL, Brasil",
      "municipio": "INHAPI",
      "coordenadas_atuais": {
        "lat": -9.216866,
        "lng": -37.7460976
      },
      "coordenadas_google": {
        "lat": -9.2225087,
        "lng": -37.7478289
      },
      "distancia_metros": 656,
      "status": "INCORRETO",
      "corrigido": true,
      "fonte_atual": "sefaz"
    },
    {
      "cnpj": "02850879000196",
      "nome": "AUTO POSTO ALVES LTDA",
      "endereco": " POVOADO LEOBINO, 12, ZONA RURAL, INHAPI, AL, Brasil",
      "municipio": "INHAPI",
      "coordenadas_atuais": {
        "lat": -9.2648351,
        "lng": -37.7312552
      },
      "coordenadas_google": {
        "lat": -9.264644299999999,
        "lng": -37.7323723
      },
      "distancia_metros": 124,
      "status": "SUSPEITO",
      "corrigido": false,
      "fonte_atual": "sefaz"
    },
    {
      "cnpj": "13222947000199",
      "nome": "AUTO POSTO CAPELINHA",
      "endereco": "AV POMPILIO BRANDAO DE ALCANTARA, 1050, PRIMAVERA, INHAPI, AL, Brasil",
      "municipio": "INHAPI",
      "coordenadas_atuais": {
        "lat": -9.216866,
        "lng": -37.7460976
      },
      "coordenadas_google": {
        "lat": -9.218120299999999,
        "lng": -37.7463223
      },
      "distancia_metros": 142,
      "status": "SUSPEITO",
      "corrigido": false,
      "fonte_atual": "sefaz"
    },
    {
      "cnpj": "28742913000100",
      "nome": "AUTO POSTO 2 IRMAOS",
      "endereco": "ROD AL 220, S/N, ZONA RURAL, JACARE DOS HOMENS, AL, Brasil",
      "municipio": "JACARE DOS HOMENS",
      "coordenadas_atuais": {
        "lat": -9.6314123,
        "lng": -37.2046292
      },
      "coordenadas_google": {
        "lat": -9.6164085,
        "lng": -37.2194815
      },
      "distancia_metros": 2331,
      "status": "INCORRETO",
      "corrigido": true,
      "fonte_atual": "sefaz"
    },
    {
      "cnpj": "09418672000196",
      "nome": "AUTO POSTO JACUIPE",
      "endereco": "AV SENADOR ARNON DE MELO, 22, CENTRO, JACUIPE, AL, Brasil",
      "municipio": "JACUIPE",
      "coordenadas_atuais": {
        "lat": -8.8408252,
        "lng": -35.4591827
      },
      "coordenadas_google": {
        "lat": -9.582395499999999,
        "lng": -36.3095763
      },
      "distancia_metros": 124546,
      "status": "INCORRETO",
      "corrigido": true,
      "fonte_atual": "sefaz"
    },
    {
      "cnpj": "02418116000170",
      "nome": "POSTO JAPARATINGA",
      "endereco": "SIT AREAL, SN, LITORAL, JAPARATINGA, AL, Brasil",
      "municipio": "JAPARATINGA",
      "coordenadas_atuais": {
        "lat": -9.0898234,
        "lng": -35.258033
      },
      "coordenadas_google": {
        "lat": -9.0883326,
        "lng": -35.2574319
      },
      "distancia_metros": 178,
      "status": "SUSPEITO",
      "corrigido": false,
      "fonte_atual": "sefaz"
    },
    {
      "cnpj": "28675655000189",
      "nome": "AUTO POSTO ALEXANDRE",
      "endereco": "ROD AL 220, S/N, ZONA RURAL, JARAMATAIA, AL, Brasil",
      "municipio": "JARAMATAIA",
      "coordenadas_atuais": {
        "lat": -9.6589442,
        "lng": -37.0512145
      },
      "coordenadas_google": {
        "lat": -9.6498663,
        "lng": -37.0025018
      },
      "distancia_metros": 5434,
      "status": "INCORRETO",
      "corrigido": true,
      "fonte_atual": "sefaz"
    },
    {
      "cnpj": "07779798000160",
      "nome": "AUTO POSTO BACURAU",
      "endereco": "RDV AL 220, S/N, ZONA RURAL, JARAMATAIA, AL, Brasil",
      "municipio": "JARAMATAIA",
      "coordenadas_atuais": {
        "lat": -9.650173599999999,
        "lng": -37.0036647
      },
      "coordenadas_google": {
        "lat": -9.6498663,
        "lng": -37.0025018
      },
      "distancia_metros": 132,
      "status": "SUSPEITO",
      "corrigido": false,
      "fonte_atual": "sefaz"
    },
    {
      "cnpj": "03538830000165",
      "nome": "POSTO SAO JOSE JEQUIA",
      "endereco": "AL 101 SUL, SN, ZONA RURAL, JEQUIA DA PRAIA, AL, Brasil",
      "municipio": "JEQUIA DA PRAIA",
      "coordenadas_atuais": {
        "lat": -10.0416771,
        "lng": -36.0331231
      },
      "coordenadas_google": {
        "lat": -9.6942704,
        "lng": -35.79027
      },
      "distancia_metros": 46905,
      "status": "INCORRETO",
      "corrigido": true,
      "fonte_atual": "sefaz"
    },
    {
      "cnpj": "12236184000172",
      "nome": "AUTO POSTO VOLANTE",
      "endereco": "Rua DR TEOFILO DE BARROS, SN, CENTRO, JOAQUIM GOMES, AL, Brasil",
      "municipio": "JOAQUIM GOMES",
      "coordenadas_atuais": {
        "lat": -9.0566172,
        "lng": -35.784354
      },
      "coordenadas_google": {
        "lat": -9.1381833,
        "lng": -35.7534563
      },
      "distancia_metros": 9683,
      "status": "INCORRETO",
      "corrigido": true,
      "fonte_atual": "sefaz"
    },
    {
      "cnpj": "12875591000120",
      "nome": "AUTO POSTO JUNDIA",
      "endereco": "SIT CONCEICAO DA PAZ, 111, ZONA URBANA, JUNDIA, AL, Brasil",
      "municipio": "JUNDIA",
      "coordenadas_atuais": {
        "lat": -8.9421599,
        "lng": -35.5525978
      },
      "coordenadas_google": {
        "lat": -8.9340272,
        "lng": -35.570997
      },
      "distancia_metros": 2214,
      "status": "INCORRETO",
      "corrigido": true,
      "fonte_atual": "sefaz"
    },
    {
      "cnpj": "55668549000140",
      "nome": "POSTO MAGUARY",
      "endereco": "ROD BR 101 SUL, S/N, POVOADO OLHO D'AGUA, JUNQUEIRO, AL, Brasil",
      "municipio": "JUNQUEIRO",
      "coordenadas_atuais": {
        "lat": -9.86667,
        "lng": -36.46667
      },
      "coordenadas_google": {
        "lat": -9.6065836,
        "lng": -36.0268827
      },
      "distancia_metros": 56209,
      "status": "INCORRETO",
      "corrigido": true,
      "fonte_atual": "opencage"
    },
    {
      "cnpj": "07531582000181",
      "nome": "AUTO POSTO TRES IRMAOS",
      "endereco": "RDV BR - 101 SUL, 240, CENTRO, JUNQUEIRO, AL, Brasil",
      "municipio": "JUNQUEIRO",
      "coordenadas_atuais": {
        "lat": -9.7094673,
        "lng": -36.0389556
      },
      "coordenadas_google": {
        "lat": -9.9254741,
        "lng": -36.471537
      },
      "distancia_metros": 53135,
      "status": "INCORRETO",
      "corrigido": true,
      "fonte_atual": "sefaz"
    },
    {
      "cnpj": "42337336000194",
      "nome": "POSTO FREI DAMIAO",
      "endereco": "Rua JOAO AVELINO DOS SANTOS, 714, RETIRO, JUNQUEIRO, AL, Brasil",
      "municipio": "JUNQUEIRO",
      "coordenadas_atuais": {
        "lat": -9.88333,
        "lng": -36.46667
      },
      "coordenadas_google": {
        "lat": -9.8920765,
        "lng": -36.4662306
      },
      "distancia_metros": 974,
      "status": "INCORRETO",
      "corrigido": true,
      "fonte_atual": "opencage"
    },
    {
      "cnpj": "57214182000110",
      "nome": "ALE JUNQUEIRO",
      "endereco": "ROD ROD BR 101 SUL KM 192, S/N, GILBERTO PEREIRA, JUNQUEIRO, AL, Brasil",
      "municipio": "JUNQUEIRO",
      "coordenadas_atuais": {
        "lat": -9.92528,
        "lng": -36.47583
      },
      "coordenadas_google": {
        "lat": -9.9254741,
        "lng": -36.471537
      },
      "distancia_metros": 471,
      "status": "SUSPEITO",
      "corrigido": false,
      "fonte_atual": "opencage"
    },
    {
      "cnpj": "12451076000201",
      "nome": "POSTO ALVORADA",
      "endereco": "RDV AL 115, S/N, ZONA RURAL, LAGOA DA CANOA, AL, Brasil",
      "municipio": "LAGOA DA CANOA",
      "coordenadas_atuais": {
        "lat": -9.8218401,
        "lng": -36.7376825
      },
      "coordenadas_google": {
        "lat": -9.8139001,
        "lng": -36.7234815
      },
      "distancia_metros": 1789,
      "status": "INCORRETO",
      "corrigido": true,
      "fonte_atual": "sefaz"
    },
    {
      "cnpj": "45859299000172",
      "nome": "AUTO POSTO 3 M",
      "endereco": "ROD AL 115, SN, KM 19 SITIO OLHO DAGUA, LAGOA DA CANOA, AL, Brasil",
      "municipio": "LAGOA DA CANOA",
      "coordenadas_atuais": {
        "lat": -27.60491,
        "lng": -48.46713
      },
      "coordenadas_google": {
        "lat": -9.8139001,
        "lng": -36.7234815
      },
      "distancia_metros": 2329412,
      "status": "INCORRETO",
      "corrigido": true,
      "fonte_atual": "opencage"
    },
    {
      "cnpj": "12330196000161",
      "nome": "AUTO POSTO G. CHAGAS",
      "endereco": "SIT PELEVE NOVO, 63, ZONA RURAL, LIMOEIRO DE ANADIA, AL, Brasil",
      "municipio": "LIMOEIRO DE ANADIA",
      "coordenadas_atuais": {
        "lat": -9.74056,
        "lng": -36.50278
      },
      "coordenadas_google": {
        "lat": -9.7657802,
        "lng": -36.5541223
      },
      "distancia_metros": 6287,
      "status": "INCORRETO",
      "corrigido": true,
      "fonte_atual": "opencage"
    },
    {
      "cnpj": "00807244000261",
      "nome": "AUTO POSTO LIMOEIRO",
      "endereco": "ROD AL 220, SN, POV.PELEVE ZONA RURAL, LIMOEIRO DE ANADIA, AL, Brasil",
      "municipio": "LIMOEIRO DE ANADIA",
      "coordenadas_atuais": {
        "lat": -9.742691299999999,
        "lng": -36.49913859999999
      },
      "coordenadas_google": {
        "lat": -9.7669993,
        "lng": -36.5516907
      },
      "distancia_metros": 6362,
      "status": "INCORRETO",
      "corrigido": true,
      "fonte_atual": "sefaz"
    },
    {
      "cnpj": "37715958000179",
      "nome": "AUTO POSTO 220 LTDA",
      "endereco": "ROD AL 220, SN, ZONA RURAL, LIMOEIRO DE ANADIA, AL, Brasil",
      "municipio": "LIMOEIRO DE ANADIA",
      "coordenadas_atuais": {
        "lat": -9.74056,
        "lng": -36.50278
      },
      "coordenadas_google": {
        "lat": -9.7421568,
        "lng": -36.4741477
      },
      "distancia_metros": 3143,
      "status": "INCORRETO",
      "corrigido": true,
      "fonte_atual": "opencage"
    },
    {
      "cnpj": "37827515000170",
      "nome": "AUTO POSTO 3N",
      "endereco": "SIT POVOADO CADOZ, S/N, ZONA RURAL, LIMOEIRO DE ANADIA, AL, Brasil",
      "municipio": "LIMOEIRO DE ANADIA",
      "coordenadas_atuais": {
        "lat": -9.7401853,
        "lng": -36.470928
      },
      "coordenadas_google": {
        "lat": -9.7381826,
        "lng": -36.5020858
      },
      "distancia_metros": 3422,
      "status": "INCORRETO",
      "corrigido": true,
      "fonte_atual": "sefaz"
    },
    {
      "cnpj": "57930433000163",
      "nome": "AGRESTE LIMOEIRO COMBUSTIVEIS E SERVICOS LTDA",
      "endereco": "ROD AL 220, S/N, ZONA RURAL, LIMOEIRO DE ANADIA, AL, Brasil",
      "municipio": "LIMOEIRO DE ANADIA",
      "coordenadas_atuais": {
        "lat": -9.74056,
        "lng": -36.50278
      },
      "coordenadas_google": {
        "lat": -9.7421568,
        "lng": -36.4741477
      },
      "distancia_metros": 3143,
      "status": "INCORRETO",
      "corrigido": true,
      "fonte_atual": "opencage"
    },
    {
      "cnpj": "15503894000100",
      "nome": "POSTO SENA",
      "endereco": "AV MUNIZ FALCAO, 872, BARRO DURO, MACEIO, AL, Brasil",
      "municipio": "MACEIO",
      "coordenadas_atuais": {
        "lat": -9.618955900000001,
        "lng": -35.72129
      },
      "coordenadas_google": {
        "lat": -9.6173982,
        "lng": -35.7201608
      },
      "distancia_metros": 213,
      "status": "SUSPEITO",
      "corrigido": false,
      "fonte_atual": "sefaz"
    },
    {
      "cnpj": "60220297000122",
      "nome": "POSTO RPM",
      "endereco": "AV Menino Marcelo, 6885, ANTARES, MACEIO, AL, Brasil",
      "municipio": "MACEIO",
      "coordenadas_atuais": {
        "lat": -9.5777282,
        "lng": -35.7369226
      },
      "coordenadas_google": {
        "lat": -9.583357,
        "lng": -35.7344241
      },
      "distancia_metros": 683,
      "status": "INCORRETO",
      "corrigido": true,
      "fonte_atual": "nominatim"
    },
    {
      "cnpj": "57251310000104",
      "nome": "POSTO CATHARINA",
      "endereco": "Rua Coronel Paranhos, 294, Jacintinho, MACEIO, AL, Brasil",
      "municipio": "MACEIO",
      "coordenadas_atuais": {
        "lat": -9.6536179,
        "lng": -35.7230807
      },
      "coordenadas_google": {
        "lat": -9.6552584,
        "lng": -35.7239326
      },
      "distancia_metros": 205,
      "status": "SUSPEITO",
      "corrigido": false,
      "fonte_atual": "nominatim"
    },
    {
      "cnpj": "43465775000226",
      "nome": "GAS FORT",
      "endereco": "AV FERNANDES LIMA, 85, FAROL, MACEIO, AL, Brasil",
      "municipio": "MACEIO",
      "coordenadas_atuais": {
        "lat": -9.6488497,
        "lng": -35.7336162
      },
      "coordenadas_google": {
        "lat": -9.6501023,
        "lng": -35.7337096
      },
      "distancia_metros": 140,
      "status": "SUSPEITO",
      "corrigido": false,
      "fonte_atual": "nominatim"
    },
    {
      "cnpj": "49010857000181",
      "nome": "POSTO FC",
      "endereco": "AV João Omena de Andrade, S/N, Ipioca, MACEIO, AL, Brasil",
      "municipio": "MACEIO",
      "coordenadas_atuais": {
        "lat": -9.66583,
        "lng": -35.73528
      },
      "coordenadas_google": {
        "lat": -9.6632619,
        "lng": -35.7273538
      },
      "distancia_metros": 915,
      "status": "INCORRETO",
      "corrigido": true,
      "fonte_atual": "opencage"
    },
    {
      "cnpj": "04077577000314",
      "nome": "POSTOS DE COMBUSTIVEIS PICHILAU",
      "endereco": "AV DURVAL DE GOES MONTEIRO, S/N, TAB DOS MARTINS, MACEIO, AL, Brasil",
      "municipio": "MACEIO",
      "coordenadas_atuais": {
        "lat": -9.591145599999999,
        "lng": -35.7584345
      },
      "coordenadas_google": {
        "lat": -9.5793316,
        "lng": -35.7681993
      },
      "distancia_metros": 1695,
      "status": "INCORRETO",
      "corrigido": true,
      "fonte_atual": "sefaz"
    },
    {
      "cnpj": "34927447000122",
      "nome": "POSTO BOMBA DO GONZAGA",
      "endereco": "AV DOUTOR DURVAL DE GOES MONTEIRO, 2769, TABULEIRO DO MARTINS, MACEIO, AL, Brasil",
      "municipio": "MACEIO",
      "coordenadas_atuais": {
        "lat": -9.6041168,
        "lng": -35.7445332
      },
      "coordenadas_google": {
        "lat": -9.5764518,
        "lng": -35.7709025
      },
      "distancia_metros": 4222,
      "status": "INCORRETO",
      "corrigido": true,
      "fonte_atual": "sefaz"
    },
    {
      "cnpj": "09084298000130",
      "nome": "MACEIO AUTO POSTO",
      "endereco": "AV DR JORGE MONTENEGRO DE BARROS, 00000, SANTA AMELIA, MACEIO, AL, Brasil",
      "municipio": "MACEIO",
      "coordenadas_atuais": {
        "lat": -9.6029436,
        "lng": -35.7701808
      },
      "coordenadas_google": {
        "lat": -9.6197202,
        "lng": -35.7598889
      },
      "distancia_metros": 2180,
      "status": "INCORRETO",
      "corrigido": true,
      "fonte_atual": "sefaz"
    },
    {
      "cnpj": "09609009000179",
      "nome": "POSTO NOBRE",
      "endereco": "AV FERNANDES LIMA, 1130, FAROL, MACEIO, AL, Brasil",
      "municipio": "MACEIO",
      "coordenadas_atuais": {
        "lat": -9.6073987,
        "lng": -35.7403683
      },
      "coordenadas_google": {
        "lat": -9.6406602,
        "lng": -35.7350399
      },
      "distancia_metros": 3744,
      "status": "INCORRETO",
      "corrigido": true,
      "fonte_atual": "sefaz"
    },
    {
      "cnpj": "00404850000155",
      "nome": "MARTA CRISTINA SOBRAL",
      "endereco": "ROD BR 101 - NORTE, S/N, RIO NOVO, MACEIO, AL, Brasil",
      "municipio": "MACEIO",
      "coordenadas_atuais": {
        "lat": -9.5882326,
        "lng": -35.7612812
      },
      "coordenadas_google": {
        "lat": -9.6065836,
        "lng": -36.0268827
      },
      "distancia_metros": 29192,
      "status": "INCORRETO",
      "corrigido": true,
      "fonte_atual": "sefaz"
    },
    {
      "cnpj": "08797955000123",
      "nome": "POSTO LUMAR VADO",
      "endereco": "AV FERNANDES LIMA, 195, FAROL, MACEIO, AL, Brasil",
      "municipio": "MACEIO",
      "coordenadas_atuais": {
        "lat": -9.6474838,
        "lng": -35.7340693
      },
      "coordenadas_google": {
        "lat": -9.648936500000001,
        "lng": -35.7338838
      },
      "distancia_metros": 163,
      "status": "SUSPEITO",
      "corrigido": false,
      "fonte_atual": "nominatim"
    },
    {
      "cnpj": "03855924000168",
      "nome": "POSTO SEREIA",
      "endereco": "AV GENERAL LUIZ DE FRANCA ALBUQUERQUE, 10709, RIACHO DOCE, MACEIO, AL, Brasil",
      "municipio": "MACEIO",
      "coordenadas_atuais": {
        "lat": -9.6019975,
        "lng": -35.6802985
      },
      "coordenadas_google": {
        "lat": -9.561366,
        "lng": -35.6440271
      },
      "distancia_metros": 6019,
      "status": "INCORRETO",
      "corrigido": true,
      "fonte_atual": "sefaz"
    },
    {
      "cnpj": "07637992000101",
      "nome": "POSTO SANTA AMELIA",
      "endereco": "Rua EDITH LESSA LOBO, 1163, SANTA AMELIA, MACEIO, AL, Brasil",
      "municipio": "MACEIO",
      "coordenadas_atuais": {
        "lat": -9.5625144,
        "lng": -35.7559961
      },
      "coordenadas_google": {
        "lat": -9.604495199999999,
        "lng": -35.7698285
      },
      "distancia_metros": 4908,
      "status": "INCORRETO",
      "corrigido": true,
      "fonte_atual": "sefaz"
    },
    {
      "cnpj": "35567213000184",
      "nome": "POSTO VIPS LTDA",
      "endereco": "AV COMENDADOR GUSTAVO PAIVA, 5820, CRUZ DAS ALMAS, MACEIO, AL, Brasil",
      "municipio": "MACEIO",
      "coordenadas_atuais": {
        "lat": -9.6154925,
        "lng": -35.6902827
      },
      "coordenadas_google": {
        "lat": -9.6307121,
        "lng": -35.6994924
      },
      "distancia_metros": 1971,
      "status": "INCORRETO",
      "corrigido": true,
      "fonte_atual": "sefaz"
    },
    {
      "cnpj": "51187873000196",
      "nome": "ATENAS COMERCIO DE COMBUSTIVEIS LTDA",
      "endereco": "AV GOVERNADOR AFRANIO LAGES, 450, JACINTINHO, MACEIO, AL, Brasil",
      "municipio": "MACEIO",
      "coordenadas_atuais": {
        "lat": -9.643907,
        "lng": -35.7206276
      },
      "coordenadas_google": {
        "lat": -9.643704,
        "lng": -35.7162125
      },
      "distancia_metros": 485,
      "status": "SUSPEITO",
      "corrigido": false,
      "fonte_atual": "nominatim"
    },
    {
      "cnpj": "09164951000251",
      "nome": "AAMM COMERCIAL DE COMBUSTIVEIS LTDA",
      "endereco": "AV DURVAL DE GOES MONTEIRO, 9110, TABULEIRO DOS MARTINS, MACEIO, AL, Brasil",
      "municipio": "MACEIO",
      "coordenadas_atuais": {
        "lat": -9.5934607,
        "lng": -35.7543441
      },
      "coordenadas_google": {
        "lat": -9.582961,
        "lng": -35.7647827
      },
      "distancia_metros": 1635,
      "status": "INCORRETO",
      "corrigido": true,
      "fonte_atual": "sefaz"
    },
    {
      "cnpj": "17577641000106",
      "nome": "POSTO VALPARAISO",
      "endereco": "AV GOVERNADOR LAMENHA FILHO, 1560, FEITOSA, MACEIO, AL, Brasil",
      "municipio": "MACEIO",
      "coordenadas_atuais": {
        "lat": -9.6440285,
        "lng": -35.7283363
      },
      "coordenadas_google": {
        "lat": -9.6313683,
        "lng": -35.7250914
      },
      "distancia_metros": 1452,
      "status": "INCORRETO",
      "corrigido": true,
      "fonte_atual": "sefaz"
    },
    {
      "cnpj": "08158788000170",
      "nome": "POSTO CABO REIS",
      "endereco": "Rua BOA VISTA, 398, PRADO, MACEIO, AL, Brasil",
      "municipio": "MACEIO",
      "coordenadas_atuais": {
        "lat": -9.6611639,
        "lng": -35.7390173
      },
      "coordenadas_google": {
        "lat": -9.6678231,
        "lng": -35.7575611
      },
      "distancia_metros": 2163,
      "status": "INCORRETO",
      "corrigido": true,
      "fonte_atual": "sefaz"
    },
    {
      "cnpj": "05760532000140",
      "nome": "TARGINO E COSTA LTDA",
      "endereco": "Rua VEREADOR JOSE RAIMUNDO DOS SANTOS, 760, ANTARES, MACEIO, AL, Brasil",
      "municipio": "MACEIO",
      "coordenadas_atuais": {
        "lat": -9.5628902,
        "lng": -35.7391296
      },
      "coordenadas_google": {
        "lat": -9.5627706,
        "lng": -35.7363043
      },
      "distancia_metros": 310,
      "status": "SUSPEITO",
      "corrigido": false,
      "fonte_atual": "nominatim"
    },
    {
      "cnpj": "17336019000106",
      "nome": "POSTO VELOZ",
      "endereco": "AV MENINO MARCELO, 4420, ANTARES, MACEIO, AL, Brasil",
      "municipio": "MACEIO",
      "coordenadas_atuais": {
        "lat": -9.5654072,
        "lng": -35.7762968
      },
      "coordenadas_google": {
        "lat": -9.5634544,
        "lng": -35.7456359
      },
      "distancia_metros": 3369,
      "status": "INCORRETO",
      "corrigido": true,
      "fonte_atual": "sefaz"
    },
    {
      "cnpj": "05900875000163",
      "nome": "POSTO SANTO ANTONIO",
      "endereco": "AV MENDONCA JUNIOR, 340, GRUTA DE LOURDES, MACEIO, AL, Brasil",
      "municipio": "MACEIO",
      "coordenadas_atuais": {
        "lat": -9.6284151,
        "lng": -35.7375959
      },
      "coordenadas_google": {
        "lat": -9.6251039,
        "lng": -35.7299139
      },
      "distancia_metros": 919,
      "status": "INCORRETO",
      "corrigido": true,
      "fonte_atual": "nominatim"
    },
    {
      "cnpj": "39482221000189",
      "nome": "TOTAL GIRO",
      "endereco": "AV JORGE BARROS, 3777, SANTA AMELIA, MACEIO, AL, Brasil",
      "municipio": "MACEIO",
      "coordenadas_atuais": {
        "lat": -9.5844678,
        "lng": -35.7767082
      },
      "coordenadas_google": {
        "lat": -9.5908299,
        "lng": -35.7750843
      },
      "distancia_metros": 729,
      "status": "INCORRETO",
      "corrigido": true,
      "fonte_atual": "sefaz"
    },
    {
      "cnpj": "17698076000135",
      "nome": "AUTO POSTO ESTRELA",
      "endereco": "AV DR. DURVAL DE GOES MONTEIRO, 8050, SANTA LUCIA, MACEIO, AL, Brasil",
      "municipio": "MACEIO",
      "coordenadas_atuais": {
        "lat": -9.585514,
        "lng": -35.763299
      },
      "coordenadas_google": {
        "lat": -9.5906085,
        "lng": -35.7587075
      },
      "distancia_metros": 758,
      "status": "INCORRETO",
      "corrigido": true,
      "fonte_atual": "sefaz"
    },
    {
      "cnpj": "42440017000100",
      "nome": "POSTO TIGRE COMENDADOR",
      "endereco": "AV COMENDADOR LEAO, 1178, POCO, MACEIO, AL, Brasil",
      "municipio": "MACEIO",
      "coordenadas_atuais": {
        "lat": -9.657021,
        "lng": -35.7231182
      },
      "coordenadas_google": {
        "lat": -9.6599814,
        "lng": -35.7232567
      },
      "distancia_metros": 330,
      "status": "SUSPEITO",
      "corrigido": false,
      "fonte_atual": "nominatim"
    },
    {
      "cnpj": "03091692000119",
      "nome": "POSTO LIMA",
      "endereco": "Rua SANTO ANTONIO, 7, LEVADA, MACEIO, AL, Brasil",
      "municipio": "MACEIO",
      "coordenadas_atuais": {
        "lat": -9.5837939,
        "lng": -35.7754161
      },
      "coordenadas_google": {
        "lat": -9.6626625,
        "lng": -35.7469086
      },
      "distancia_metros": 9310,
      "status": "INCORRETO",
      "corrigido": true,
      "fonte_atual": "sefaz"
    },
    {
      "cnpj": "43474255000107",
      "nome": "AUTO POSTO QUARTO DE MILHA",
      "endereco": "AV LOURIVAL MELO MOTA, 13930, CIDADE UNIVERSITARIA, MACEIO, AL, Brasil",
      "municipio": "MACEIO",
      "coordenadas_atuais": {
        "lat": -9.5597957,
        "lng": -35.780253
      },
      "coordenadas_google": {
        "lat": -9.5479786,
        "lng": -35.7865281
      },
      "distancia_metros": 1483,
      "status": "INCORRETO",
      "corrigido": true,
      "fonte_atual": "nominatim"
    },
    {
      "cnpj": "69986842000160",
      "nome": "CANAA COMERCIO E REPRESENTACOES LTDA",
      "endereco": "AV FERNANDES LIMA, 4922, CANAA, MACEIO, AL, Brasil",
      "municipio": "MACEIO",
      "coordenadas_atuais": {
        "lat": -9.6129445,
        "lng": -35.7396706
      },
      "coordenadas_google": {
        "lat": -9.644109799999999,
        "lng": -35.7345716
      },
      "distancia_metros": 3510,
      "status": "INCORRETO",
      "corrigido": true,
      "fonte_atual": "nominatim"
    },
    {
      "cnpj": "28343707000209",
      "nome": "REYAUTO POSTO",
      "endereco": "AV JUCA SAMPAIO, 92, JACINTINHO, MACEIO, AL, Brasil",
      "municipio": "MACEIO",
      "coordenadas_atuais": {
        "lat": -9.630845,
        "lng": -35.715886
      },
      "coordenadas_google": {
        "lat": -9.6356568,
        "lng": -35.7153743
      },
      "distancia_metros": 538,
      "status": "INCORRETO",
      "corrigido": true,
      "fonte_atual": "sefaz"
    },
    {
      "cnpj": "11123433000150",
      "nome": "TOTAL GIRO",
      "endereco": "AV DEPUTADO SERZEDELO DE BARROS CORREIA, 760, SANTOS DUMONT, MACEIO, AL, Brasil",
      "municipio": "MACEIO",
      "coordenadas_atuais": {
        "lat": -9.5665052,
        "lng": -35.8064587
      },
      "coordenadas_google": {
        "lat": -9.5687079,
        "lng": -35.7955833
      },
      "distancia_metros": 1217,
      "status": "INCORRETO",
      "corrigido": true,
      "fonte_atual": "sefaz"
    },
    {
      "cnpj": "46687131000190",
      "nome": "AUTO POSTO TOTAL GIRO 13",
      "endereco": "AV Menino Marcelo, 5755, Antares, MACEIO, AL, Brasil",
      "municipio": "MACEIO",
      "coordenadas_atuais": {
        "lat": -9.5790031,
        "lng": -35.7364257
      },
      "coordenadas_google": {
        "lat": -9.573766299999999,
        "lng": -35.7382675
      },
      "distancia_metros": 616,
      "status": "INCORRETO",
      "corrigido": true,
      "fonte_atual": "nominatim"
    },
    {
      "cnpj": "27665019000375",
      "nome": "POSTO PRATAGY",
      "endereco": "AV MENINO MARCELO, 154, TABULEIRO DO MARTINS, MACEIO, AL, Brasil",
      "municipio": "MACEIO",
      "coordenadas_atuais": {
        "lat": -9.5584012,
        "lng": -35.7649186
      },
      "coordenadas_google": {
        "lat": -9.5654579,
        "lng": -35.7752893
      },
      "distancia_metros": 1382,
      "status": "INCORRETO",
      "corrigido": true,
      "fonte_atual": "nominatim"
    },
    {
      "cnpj": "01774803000166",
      "nome": "POSTO ALECRIM",
      "endereco": "AV MENINO MARCELO, 8680, SERRARIA, MACEIO, AL, Brasil",
      "municipio": "MACEIO",
      "coordenadas_atuais": {
        "lat": -9.581493799999999,
        "lng": -35.7356556
      },
      "coordenadas_google": {
        "lat": -9.5955868,
        "lng": -35.7240518
      },
      "distancia_metros": 2019,
      "status": "INCORRETO",
      "corrigido": true,
      "fonte_atual": "sefaz"
    },
    {
      "cnpj": "34801633000110",
      "nome": "HANNAH EXPRESS",
      "endereco": "AV JUCA SAMPAIO, 322, BARRO DURO, MACEIO, AL, Brasil",
      "municipio": "MACEIO",
      "coordenadas_atuais": {
        "lat": -9.636639,
        "lng": -35.71411
      },
      "coordenadas_google": {
        "lat": -9.615943399999999,
        "lng": -35.7171183
      },
      "distancia_metros": 2325,
      "status": "INCORRETO",
      "corrigido": true,
      "fonte_atual": "sefaz"
    },
    {
      "cnpj": "24586803000138",
      "nome": "POSTO LAGOA",
      "endereco": "AV SENADOR RUI PALMEIRA, 103, LEVADA, MACEIO, AL, Brasil",
      "municipio": "MACEIO",
      "coordenadas_atuais": {
        "lat": -9.677050999999999,
        "lng": -35.7603523
      },
      "coordenadas_google": {
        "lat": -9.6553782,
        "lng": -35.7472033
      },
      "distancia_metros": 2808,
      "status": "INCORRETO",
      "corrigido": true,
      "fonte_atual": "sefaz"
    },
    {
      "cnpj": "27752571000139",
      "nome": "AUTO POSTO GRUTA",
      "endereco": "AV FERNANDES LIMA, 3564, GRUTA DE LOURDES, MACEIO, AL, Brasil",
      "municipio": "MACEIO",
      "coordenadas_atuais": {
        "lat": -9.6310743,
        "lng": -35.7369985
      },
      "coordenadas_google": {
        "lat": -9.6176359,
        "lng": -35.7389408
      },
      "distancia_metros": 1509,
      "status": "INCORRETO",
      "corrigido": true,
      "fonte_atual": "sefaz"
    },
    {
      "cnpj": "60066994000251",
      "nome": "PRATAGY & EXTRA",
      "endereco": "AV FERNANDES LIMA, 3948, GRUTA DE LOURDES, MACEIO, AL, Brasil",
      "municipio": "MACEIO",
      "coordenadas_atuais": {
        "lat": -9.6219993,
        "lng": -35.7387664
      },
      "coordenadas_google": {
        "lat": -9.6133805,
        "lng": -35.7393043
      },
      "distancia_metros": 960,
      "status": "INCORRETO",
      "corrigido": true,
      "fonte_atual": "nominatim"
    },
    {
      "cnpj": "05901009000197",
      "nome": "POSTO NENO",
      "endereco": "Rua FORMOSA, 1985, PONTA GROSSA, MACEIO, AL, Brasil",
      "municipio": "MACEIO",
      "coordenadas_atuais": {
        "lat": -9.663200699999999,
        "lng": -35.761263
      },
      "coordenadas_google": {
        "lat": -9.6638142,
        "lng": -35.7559347
      },
      "distancia_metros": 588,
      "status": "INCORRETO",
      "corrigido": true,
      "fonte_atual": "sefaz"
    },
    {
      "cnpj": "02804864000191",
      "nome": "POSTO SARANDI",
      "endereco": "AV WALTER ANANIAS, 1165, JARAGUÁ, MACEIO, AL, Brasil",
      "municipio": "MACEIO",
      "coordenadas_atuais": {
        "lat": -9.6670929,
        "lng": -35.7273019
      },
      "coordenadas_google": {
        "lat": -9.6672984,
        "lng": -35.7252033
      },
      "distancia_metros": 231,
      "status": "SUSPEITO",
      "corrigido": false,
      "fonte_atual": "nominatim"
    },
    {
      "cnpj": "09231306000123",
      "nome": "CAVALCANTE & LEITE LTDA",
      "endereco": "AV DEPUTADO SERZEDELO DE BARROS CORREIA, 1351, CLIMA BOM, MACEIO, AL, Brasil",
      "municipio": "MACEIO",
      "coordenadas_atuais": {
        "lat": -9.572560099999999,
        "lng": -35.7991796
      },
      "coordenadas_google": {
        "lat": -9.5654594,
        "lng": -35.789421
      },
      "distancia_metros": 1330,
      "status": "INCORRETO",
      "corrigido": true,
      "fonte_atual": "sefaz"
    },
    {
      "cnpj": "01242690000310",
      "nome": "POSTO JOTA PINTO ARAPIRACA",
      "endereco": "AV CORONEL SALUSTIANO SARMENTO, 425, SAO JORGE, MACEIO, AL, Brasil",
      "municipio": "MACEIO",
      "coordenadas_atuais": {
        "lat": -9.6183034,
        "lng": -35.71307609999999
      },
      "coordenadas_google": {
        "lat": -9.6202927,
        "lng": -35.7097629
      },
      "distancia_metros": 425,
      "status": "SUSPEITO",
      "corrigido": false,
      "fonte_atual": "sefaz"
    },
    {
      "cnpj": "04532551000157",
      "nome": "POSTO GURI",
      "endereco": "AV MENINO MARCELO, 4641, SERRARIA, MACEIO, AL, Brasil",
      "municipio": "MACEIO",
      "coordenadas_atuais": {
        "lat": -9.5662187,
        "lng": -35.7439099
      },
      "coordenadas_google": {
        "lat": -9.590135799999999,
        "lng": -35.7280902
      },
      "distancia_metros": 3175,
      "status": "INCORRETO",
      "corrigido": true,
      "fonte_atual": "sefaz"
    },
    {
      "cnpj": "45908435000177",
      "nome": "NOSSO POSTO",
      "endereco": "AV Jorge Barros, 485, Santa Amélia, MACEIO, AL, Brasil",
      "municipio": "MACEIO",
      "coordenadas_atuais": {
        "lat": -9.5844739,
        "lng": -35.7767196
      },
      "coordenadas_google": {
        "lat": -9.5907768,
        "lng": -35.7750336
      },
      "distancia_metros": 725,
      "status": "INCORRETO",
      "corrigido": true,
      "fonte_atual": "nominatim"
    },
    {
      "cnpj": "10795540000162",
      "nome": "POSTO UNO",
      "endereco": "AV ANTONIO LISBOA DE AMORIM, SN, BENEDITO BENTES, MACEIO, AL, Brasil",
      "municipio": "MACEIO",
      "coordenadas_atuais": {
        "lat": -9.5466279,
        "lng": -35.7328553
      },
      "coordenadas_google": {
        "lat": -9.5445954,
        "lng": -35.7339389
      },
      "distancia_metros": 255,
      "status": "SUSPEITO",
      "corrigido": false,
      "fonte_atual": "nominatim"
    },
    {
      "cnpj": "17344224000113",
      "nome": "MARES DO NORTE EMPREENDIMENTOS",
      "endereco": "ROD GUNTHER FRANS OLIVEIRA, 15645, IPIOCA, MACEIO, AL, Brasil",
      "municipio": "MACEIO",
      "coordenadas_atuais": {
        "lat": -9.49551,
        "lng": -35.5831782
      },
      "coordenadas_google": {
        "lat": -9.528128299999999,
        "lng": -35.6047654
      },